Date,iso3,Continent,CountryName,lat,lon,CumulativePositive,CumulativeDeceased,CumulativeRecovered,CurrentlyPositive,Hospitalized,IntensiveCare,EUcountry,EUCPMcountry,NUTS
2022-02-03,AFG,AS,Afghanistan,33.930445,67.678945,336960633,4918894,,,,,False,False,AF
2022-02-03,ALB,EU,Albania,41.156986,20.181222,261240,3362,240642,17236,105,23,False,False,AL
2022-02-03,DZA,AF,Algeria,28.026875,1.65284,336960633,4918894,,,,,False,False,DZ
2022-02-03,ASM,OC,American Samoa,-12.716089,-170.253983,336960633,4918894,,,,,False,False,
2022-02-03,AND,EU,Andorra,42.542268,1.596865,36470,147,,,16,,False,False,AD
2022-02-03,AGO,AF,Angola,-11.209451,17.880669,336960633,4918894,,,,,False,False,AO
2022-02-03,AIA,NA,Anguilla,18.225119,-63.07213,336960633,4918894,,,,,False,False,AI
2022-02-03,ATG,NA,Antigua and Barbuda,17.363183,-61.789423,336960633,4918894,,,,,False,False,AG
2022-02-03,ARG,SA,Argentina,-38.421295,-63.587403,336960633,4918894,,,,,False,False,AR
2022-02-03,ARM,AS,Armenia,40.066181,45.111108,336960633,4918894,,,,,False,False,AM
2022-02-03,ABW,NA,Aruba,12.517713,-69.965112,336960633,4918894,,,,,False,False,AW
2022-02-03,AUS,OC,Australia,-26.853388,133.275154,336960633,4918894,,,,,False,False,AU
2022-02-02,AUT,EU,Austria,47.697542,13.349319,1968963,13671,1561190,394102,1509,184,True,True,AT
2022-02-03,AZE,AS,Azerbaijan,40.147396,47.572098,336960633,4918894,,,,,False,False,AZ
2022-02-03,BHS,NA,Bahamas,24.885993,-76.709892,336960633,4918894,,,,,False,False,BS
2022-02-03,BHR,AS,Bahrain,26.039722,50.559306,336960633,4918894,,,,,False,False,BH
2022-02-03,BGD,AS,Bangladesh,23.68764,90.351002,336960633,4918894,,,,,False,False,BD
2022-02-03,BRB,NA,Barbados,13.18355,-59.534649,336960633,4918894,,,,,False,False,BB
2022-02-04,BLR,EU,Belarus,53.711111,27.973847,760845,6116,,,,,False,False,BY
2022-02-03,BEL,EU,Belgium,50.499527,4.475402,3267656,29185,,,4239,431,True,True,BE
2022-02-03,BLZ,NA,Belize,17.192929,-88.5009,336960633,4918894,,,,,False,False,BZ
2022-02-03,BEN,AF,Benin,9.322048,2.313138,336960633,4918894,,,,,False,False,BJ
2022-02-03,BMU,NA,Bermuda,32.320236,-64.774022,336960633,4918894,,,,,False,False,BM
2022-02-03,BTN,AS,Bhutan,27.515709,90.442455,336960633,4918894,,,,,False,False,BT
2022-01-23,BOL,SA,Bolivia,-16.28835,-63.549429,301099081,4991962,0,296107119,0,0,False,False,BO
2022-01-23,BES,NA,"Bonaire, Saint Eustatius and Saba",12.160842,-68.304383,301099081,4991962,0,296107119,0,0,False,False,BQ
2022-01-05,BIH,EU,Bosnia and Herzegovina,43.892652,17.670584,295240,13547,,,,,False,False,BA
2022-02-03,BWA,AF,Botswana,-22.344029,24.680158,336960633,4918894,,,,,False,False,BW
2022-02-03,BRA,SA,Brazil,-14.242915,-53.189267,336960633,4918894,,,,,False,False,BR
2022-02-03,VGB,NA,British Virgin Islands,18.573601,-64.492065,336960633,4918894,,,,,False,False,VG
2022-01-23,BRN,AS,Brunei,4.525125,114.715443,301099081,4991962,0,296107119,0,0,False,False,BN
2021-09-23,BGR,EU,Bulgaria,42.729862,25.491667,487588,20251,426266,41071,,,True,True,BG
2022-02-03,BFA,AF,Burkina Faso,12.24185,-1.55676,336960633,4918894,,,,,False,False,BF
2022-02-03,BDI,AF,Burundi,-3.387918,29.920395,336960633,4918894,,,,,False,False,BI
2022-02-03,CPV,AF,Cabo Verde,16.0026,-24.014095,336960633,4918894,,,,,False,False,CV
2022-02-03,KHM,AS,Cambodia,12.54775,104.98386,336960633,4918894,,,,,False,False,KH
2022-02-03,CMR,AF,Cameroon,7.365302,12.343439,336960633,4918894,,,,,False,False,CM
2022-02-03,CAN,NA,Canada,62.393303,-96.818145,336960633,4918894,,,,,False,False,CA
2022-02-03,CYM,NA,Cayman Islands,19.512365,-80.580025,336960633,4918894,,,,,False,False,KY
2022-02-03,CAF,AF,Central African Republic,6.614041,20.941759,336960633,4918894,,,,,False,False,CF
2022-02-03,TCD,AF,Chad,15.445718,18.738068,336960633,4918894,,,,,False,False,TD
2022-02-03,CHL,SA,Chile,-36.711951,-73.601704,336960633,4918894,,,,,False,False,CL
2022-02-03,CHN,AS,China,34.668138,104.165802,336960633,4918894,,,,,False,False,CN
2022-02-03,COL,SA,Colombia,4.577317,-74.298973,336960633,4918894,,,,,False,False,CO
2022-02-03,COM,AF,Comoros,-11.875119,43.877007,336960633,4918894,,,,,False,False,KM
2022-01-23,COD,AF,"Congo, Democratic Republic of the",-4.034788,21.755028,301099081,4991962,0,296107119,0,0,False,False,CD
2022-01-23,COG,AF,"Congo, Rep. Of",-0.662071,14.927424,301099081,4991962,0,296107119,0,0,False,False,CG
2022-02-03,COK,OC,Cook Islands,-15.983639,-159.202896,336960633,4918894,,,,,False,False,
2022-02-03,CRI,NA,Costa Rica,9.624897,-84.253308,336960633,4918894,,,,,False,False,CR
2022-01-23,CIV,AF,Cote d'Ivoire,7.546855,-5.547099,301099081,4991962,0,296107119,0,0,False,False,CI
2021-10-19,HRV,EU,Croatia,44.48732,16.460306,428233,8906,355542,63785,,,True,True,HR
2022-02-03,CUB,NA,Cuba,21.527062,-79.544601,336960633,4918894,,,,,False,False,CU
2022-02-03,CUW,NA,Curaçao,12.209208,-68.945576,336960633,4918894,,,,,False,False,CW
2022-02-02,CYP,EU,Cyprus,35.167406,33.435499,271340,832,200534,69974,3246,,True,True,CY
2021-12-19,CZE,EU,Czech Republic,49.800901,15.478153,2406989,35288,2173844,197857,,,True,True,CZ
2021-11-30,DNK,EU,Denmark,56.155403,11.617223,483253,2883,0,480370,446,0,True,True,DK
2022-02-03,DJI,AF,Djibouti,11.808375,42.595222,336960633,4918894,,,,,False,False,DJ
2022-02-03,DMA,NA,Dominica,15.416749,-61.36413,336960633,4918894,,,,,False,False,DM
2022-02-03,DOM,NA,Dominican Republic,18.736509,-70.161744,336960633,4918894,,,,,False,False,DO
2022-01-23,TLS,OC,East Timor,-8.79973,125.677345,301099081,4991962,0,296107119,0,0,False,False,TL
2022-02-03,ECU,SA,Ecuador,-1.779901,-78.131592,336960633,4918894,,,,,False,False,EC
2022-02-03,EGY,AF,Egypt,26.696362,30.246486,336960633,4918894,,,,,False,False,EG
2022-02-03,SLV,NA,El Salvador,13.796873,-88.910412,336960633,4918894,,,,,False,False,SV
2022-02-03,GNQ,AF,Equatorial Guinea,1.633925,10.341295,336960633,4918894,,,,,False,False,GQ
2022-02-03,ERI,AF,Eritrea,15.18132,39.786709,336960633,4918894,,,,,False,False,ER
2022-02-03,EST,EU,Estonia,58.596209,25.023778,358087,,,,,,True,True,EE
2022-02-03,ETH,AF,Ethiopia,9.148086,40.493059,336960633,4918894,,,,,False,False,ET
2022-01-23,FRO,EU,Faeroe Islands,61.897846,-6.928791,301099081,4991962,0,296107119,0,0,False,False,
2022-02-03,FLK,SA,Falkland Islands (Malvinas),-51.800581,-59.528839,336960633,4918894,,,,,False,False,FK
2022-02-03,FJI,OC,Fiji,-16.578041,178.416339,336960633,4918894,,,,,False,False,FJ
2022-02-04,FIN,EU,Finland,64.952416,26.068944,514894,846,0,514048,,,True,True,FI
2022-02-03,FRA,EU,France,46.232193,2.209667,336960633,4918894,,,,,True,True,FR
2022-02-03,GUF,SA,French Guiana,3.951795,-53.07823,336960633,4918894,,,,,False,False,
2022-02-03,PYF,OC,French Polynesia,-17.778572,-143.903496,336960633,4918894,,,,,False,False,PF
2022-02-03,GAB,AF,Gabon,-0.828097,11.598909,336960633,4918894,,,,,False,False,GA
2022-02-03,GMB,AF,Gambia,13.445411,-15.311436,336960633,4918894,,,,,False,False,GM
2022-02-03,GEO,AS,Georgia,42.319847,43.368055,336960633,4918894,,,,,False,False,GE
2022-02-04,DEU,EU,Germany,51.165706,10.452764,10671604,118504,7953200,2599900,,,True,True,DE
2022-02-03,GHA,AF,Ghana,7.955012,-1.03182,336960633,4918894,,,,,False,False,GH
2022-02-03,GIB,EU,Gibraltar,36.132235,-5.352273,336960633,4918894,,,,,False,False,GI
2022-02-03,GRC,EU,Greece,38.275283,23.810343,336960633,4918894,,,,,True,True,EL
2022-02-03,GRL,NA,Greenland,71.702379,-42.177174,336960633,4918894,,,,,False,False,
2022-02-03,GRD,NA,Grenada,12.152588,-61.689557,336960633,4918894,,,,,False,False,GD
2022-02-03,GLP,NA,Guadeloupe,16.192207,-61.272382,336960633,4918894,,,,,False,False,
2022-02-03,GUM,OC,Guam,13.446472,144.786613,336960633,4918894,,,,,False,False,GU
2022-02-03,GTM,NA,Guatemala,15.776261,-90.229744,336960633,4918894,,,,,False,False,GT
2022-02-03,GGY,EU,Guernsey,49.575693,-2.42318,336960633,4918894,,,,,False,False,GG
2022-02-03,GIN,AF,Guinea,9.934887,-11.283845,336960633,4918894,,,,,False,False,GN
2022-01-23,GNB,AF,Guinea Bissau,11.802527,-15.177029,301099081,4991962,0,296107119,0,0,False,False,GW
2022-02-03,GUY,SA,Guyana,4.866324,-58.932507,336960633,4918894,,,,,False,False,GY
2022-02-03,HTI,NA,Haiti,19.054426,-73.045971,336960633,4918894,,,,,False,False,HT
2022-02-03,VAT,EU,Holy See,41.903859,12.452041,336960633,4918894,,,,,False,False,
2022-02-03,HND,NA,Honduras,14.746333,-86.253097,336960633,4918894,,,,,False,False,HN
2022-02-03,HUN,EU,Hungary,47.164638,19.508944,1600411,413636,1330876,-144101,4451,163,True,True,HU
2022-02-03,ISL,EU,Iceland,64.963942,-19.021169,336960633,4918894,,,,,False,True,IS
2022-02-03,IND,AS,India,21.125681,82.794998,336960633,4918894,,,,,False,False,IN
2022-02-03,IDN,AS,Indonesia,-2.518722,118.015568,336960633,4918894,,,,,False,False,ID
2022-01-23,IRN,AS,Iran,32.420653,53.682375,301099081,4991962,0,296107119,0,0,False,False,IR
2022-02-03,IRQ,AS,Iraq,33.223737,43.685901,336960633,4918894,,,,,False,False,IQ
2022-02-03,IRL,EU,Ireland,53.41975,-8.240472,1199217,6228,,,21662,2300,True,True,IE
2022-02-03,IMN,EU,Isle of Man,54.23782,-4.555111,336960633,4918894,,,,,False,False,IM
2022-02-03,ISR,AS,Israel,31.418388,35.073541,336960633,4918894,,,,,False,False,IL
2022-02-03,ITA,EU,Italy,41.873987,12.564167,11348701,147734,8872737,2328230,20781,1457,True,True,IT
2022-02-03,JAM,NA,Jamaica,18.115265,-77.27348,336960633,4918894,,,,,False,False,JM
2022-02-03,JPN,AS,Japan,34.886306,134.379711,336960633,4918894,,,,,False,False,JP
2022-02-03,JEY,EU,Jersey,49.217445,-2.141056,336960633,4918894,,,,,False,False,JE
2022-02-03,JOR,AS,Jordan,31.276778,37.130583,336960633,4918894,,,,,False,False,JO
2022-02-03,KAZ,AS,Kazakhstan,48.193764,66.902264,336960633,4918894,,,,,False,False,KZ
2022-02-03,KEN,AF,Kenya,0.170945,37.903969,336960633,4918894,,,,,False,False,KE
2022-02-03,KIR,OC,Kiribati,-3.358734,9.670395,336960633,4918894,,,,,False,False,
2022-01-23,XKX,EU,Kosovo,41.85637,21.803351,301099081,4991962,0,296107119,0,0,False,False,XK
2022-02-03,KWT,AS,Kuwait,29.310278,47.493515,336960633,4918894,,,,,False,False,KW
2022-02-03,KGZ,AS,Kyrgyzstan,41.205528,74.779888,336960633,4918894,,,,,False,False,KG
2022-01-23,LAO,AS,Laos,18.205208,103.895043,301099081,4991962,0,296107119,0,0,False,False,LA
2022-02-03,LVA,EU,Latvia,56.875584,24.607722,422233,4923,,,,,True,True,LV
2022-02-03,LBN,AS,Lebanon,33.872639,35.876736,336960633,4918894,,,,,False,False,LB
2022-02-03,LSO,AF,Lesotho,-29.620511,28.247414,336960633,4918894,,,,,False,False,LS
2022-02-03,LBR,AF,Liberia,6.452424,-9.428598,336960633,4918894,,,,,False,False,LR
2022-02-03,LBY,AF,Libya,26.338522,17.268816,336960633,4918894,,,,,False,False,LY
2022-02-03,LIE,EU,Liechtenstein,47.164696,9.555,336960633,4918894,,,,,False,False,LI
2022-02-03,LTU,EU,Lithuania,55.174112,23.906736,727169,7952,617747,101470,,,True,True,LT
2022-02-02,LUX,EU,Luxembourg,49.815764,6.131514,163980,956,,,,,True,True,LU
2022-02-03,MDG,AF,Madagascar,-18.777192,46.854328,336960633,4918894,,,,,False,False,MG
2022-02-03,MWI,AF,Malawi,-13.24627,34.295385,336960633,4918894,,,,,False,False,MW
2022-02-03,MYS,AS,Malaysia,4.109319,109.455475,336960633,4918894,,,,,False,False,MY
2022-02-03,MDV,AS,Maldives,3.202833,73.165249,336960633,4918894,,,,,False,False,MV
2022-02-03,MLI,AF,Mali,17.579757,-3.998823,336960633,4918894,,,,,False,False,ML
2022-02-03,MLT,EU,Malta,35.946151,14.384612,68430,559,64733,3138,,,True,True,MT
2022-02-03,MHL,OC,Marshall Islands,10.10382,168.728363,336960633,4918894,,,,,False,False,
2022-02-03,MTQ,NA,Martinique,14.635541,-61.022814,336960633,4918894,,,,,False,False,
2022-02-03,MRT,AF,Mauritania,21.00681,-10.947098,336960633,4918894,,,,,False,False,MR
2022-02-03,MUS,AF,Mauritius,-15.422486,60.006449,336960633,4918894,,,,,False,False,MU
2022-02-03,MYT,AF,Mayotte,-12.824511,45.165455,336960633,4918894,,,,,False,False,
2022-02-03,MEX,NA,Mexico,23.624813,-102.57867,336960633,4918894,,,,,False,False,MX
2022-02-02,MDA,EU,Moldova,46.979527,28.377195,455095,10718,392995,51382,,,False,False,MD
2022-02-03,MCO,EU,Monaco,43.738348,7.424451,336960633,4918894,,,,,False,False,MC
2022-02-03,MNG,AS,Mongolia,46.860945,103.836986,336960633,4918894,,,,,False,False,MN
2022-02-03,MNE,EU,Montenegro,42.710152,19.410069,221902,2591,,,0,,False,True,ME
2022-02-03,MSR,NA,Montserrat,16.749415,-62.192741,336960633,4918894,,,,,False,False,MS
2022-02-03,MAR,AF,Morocco,31.792306,-7.080168,336960633,4918894,,,,,False,False,MA
2022-02-03,MOZ,AF,Mozambique,-18.670284,35.530157,336960633,4918894,,,,,False,False,MZ
2022-01-23,MMR,AS,"Myanmar, Union of",19.163916,96.68303,301099081,4991962,0,296107119,0,0,False,False,MM
2022-02-03,NAM,AF,Namibia,-22.965662,18.486165,336960633,4918894,,,,,False,False,NA
2022-02-03,NRU,OC,Nauru,-0.52832,166.922157,336960633,4918894,,,,,False,False,NR
2022-02-03,NPL,AS,Nepal,28.395056,84.127803,336960633,4918894,,,,,False,False,NP
2022-02-02,NLD,EU,Netherlands,52.133057,5.29525,4605248,27441,0,4577807,3581537,0,True,True,NL
2022-02-03,NCL,OC,New Caledonia,-21.123889,165.846901,336960633,4918894,,,,,False,False,NC
2022-02-03,NZL,OC,New Zealand,-40.9006,174.886,336960633,4918894,,,,,False,False,NZ
2022-02-03,NIC,NA,Nicaragua,12.866726,-85.214298,336960633,4918894,,,,,False,False,NI
2022-02-03,NER,AF,Niger,17.611,8.080946,336960633,4918894,,,,,False,False,NE
2022-02-03,NGA,AF,Nigeria,9.084575,8.674252,336960633,4918894,,,,,False,False,NG
2022-02-03,NIU,OC,Niue,-19.051631,-169.86309,336960633,4918894,,,,,False,False,
2022-02-03,MKD,EU,North Macedonia,41.611,21.751417,336960633,4918894,,,,,False,True,MK
2022-01-23,MNP,OC,Northern Mariana Islands,17.331835,145.47577,301099081,4991962,0,296107119,0,0,False,False,MP
2022-02-03,NOR,EU,Norway,64.583013,17.86411,812636,1466,0,811170,8012,1579,False,True,NO
2022-02-03,OMN,AS,Oman,21.516861,55.859291,336960633,4918894,,,,,False,False,OM
2022-02-03,PAK,AS,Pakistan,30.441861,69.359766,336960633,4918894,,,,,False,False,PK
2022-02-03,PLW,OC,Palau,5.63663,132.920475,336960633,4918894,,,,,False,False,PW
2022-01-23,PSE,AS,Palestine,31.881464,34.894978,301099081,4991962,0,296107119,0,0,False,False,PS
2022-02-03,PAN,NA,Panama,8.41771,-80.112777,336960633,4918894,,,,,False,False,PA
2022-02-03,PNG,OC,Papua New Guinea,-6.48825,148.403152,336960633,4918894,,,,,False,False,PG
2022-02-03,PRY,SA,Paraguay,-23.451389,-58.453215,336960633,4918894,,,,,False,False,PY
2022-02-03,PER,SA,Peru,-9.181352,-75.002365,336960633,4918894,,,,,False,False,PE
2022-02-03,PHL,AS,Philippines,12.881958,121.76654,336960633,4918894,,,,,False,False,PH
2022-02-04,POL,EU,Poland,51.92275,19.136875,5083332,106306,4152725,824301,,,True,True,PL
2022-02-03,PRT,EU,Portugal,39.553444,-7.839319,336960633,4918894,,,,,True,True,PT
2022-02-03,PRI,NA,Puerto Rico,18.223285,-66.592731,336960633,4918894,,,,,False,False,PR
2022-02-03,QAT,AS,Qatar,25.318833,51.19693,336960633,4918894,,,,,False,False,QA
2022-02-03,REU,AF,Réunion,-21.114533,55.532062,336960633,4918894,,,,,False,False,
2022-02-03,ROU,EU,Romania,45.947125,24.980514,2275914,60353,,,,,True,True,RO
2021-10-15,RUS,EU,Russian Fed.,61.523111,-74.9,7925176,223429,6960024,741723,0,0,False,False,RU
2022-02-03,RWA,AF,Rwanda,-1.94708,29.876376,336960633,4918894,,,,,False,False,RW
2022-02-03,SHN,AF,Saint Helena,-11.953679,-10.029991,336960633,4918894,,,,,False,False,
2022-02-03,KNA,NA,Saint Kitts and Nevis,17.257731,-62.706413,336960633,4918894,,,,,False,False,KN
2022-02-03,LCA,NA,Saint Lucia,13.904011,-60.974176,336960633,4918894,,,,,False,False,LC
2022-02-03,SPM,NA,Saint Pierre and Miquelon,46.966164,-56.336825,336960633,4918894,,,,,False,False,
2022-02-03,VCT,NA,Saint Vincent and the Grenadines,12.980909,-61.287392,336960633,4918894,,,,,False,False,VC
2022-01-23,BLM,NA,Saint-Barthélemy,17.903496,-62.831448,301099081,4991962,0,296107119,0,0,False,False,BL
2022-02-03,WSM,OC,Samoa,-13.736573,-172.10717,336960633,4918894,,,,,False,False,
2022-02-03,SMR,EU,San Marino,43.942973,12.460035,336960633,4918894,,,,,False,False,SM
2022-02-03,STP,AF,Sao Tome and Principe,0.863044,6.968272,336960633,4918894,,,,,False,False,ST
2022-02-03,SAU,AS,Saudi Arabia,23.886291,45.081139,336960633,4918894,,,,,False,False,SA
2022-02-03,SEN,AF,Senegal,14.499454,-14.445562,336960633,4918894,,,,,False,False,SN
2022-02-03,SRB,EU,Serbia,44.206802,20.911009,336960633,4918894,,,,,False,True,RS
2022-02-03,SYC,AF,Seychelles,-7.018792,51.242138,336960633,4918894,,,,,False,False,SC
2022-02-03,SLE,AF,Sierra Leone,8.464806,-11.795935,336960633,4918894,,,,,False,False,SL
2022-02-03,SGP,AS,Singapore,1.364917,103.822872,336960633,4918894,,,,,False,False,SG
2022-01-23,SXM,NA,Sint Maarten (Dutch part),18.04097,-63.078516,301099081,4991962,0,296107119,0,0,False,False,SX
2022-02-04,SVK,EU,Slovakia,48.665639,19.709097,1081929,17921,,,1841,268,True,True,SK
2022-01-23,SVN,EU,Slovenia,46.145528,14.974541,611697,6264,11292,594141,636,135,True,True,SI
2022-02-03,SLB,OC,Solomon Islands,-9.220083,161.244735,336960633,4918894,,,,,False,False,SB
2022-02-03,SOM,AF,Somalia,5.152149,46.199616,336960633,4918894,,,,,False,False,SO
2022-02-03,ZAF,AF,South Africa,-28.48322,24.676997,336960633,4918894,,,,,False,False,ZA
2022-01-23,KOR,AS,South Korea,35.901696,127.735889,301099081,4991962,0,296107119,0,0,False,False,KR
2022-02-03,SSD,AF,South Sudan,7.856272,30.040413,336960633,4918894,,,,,False,False,SS
2022-02-03,ESP,EU,Spain,39.896027,-2.487694,10199716,9259908,,,17012,1947,True,True,ES
2022-02-03,LKA,AS,Sri Lanka,7.874097,80.767098,336960633,4918894,,,,,False,False,LK
2022-02-03,SDN,AF,Sudan,15.45847,30.217636,336960633,4918894,,,,,False,False,SD
2022-02-03,SUR,SA,Suriname,3.917846,-56.032028,336960633,4918894,,,,,False,False,SR
2022-01-25,SWE,EU,Sweden,62.199806,17.637493,3946970,15768,,,,8527,True,True,SE
2022-02-04,CHE,EU,Switzerland,46.815514,8.224472,2288217,12839,251130,2024248,2275,230,False,False,CH
2022-02-03,SYR,AS,Syrian Arab Republic,34.814902,39.056126,336960633,4918894,,,,,False,False,SY
2022-01-23,TWN,AS,Taiwan,21.901806,121.471,301099081,4991962,0,296107119,0,0,False,False,TW
2022-02-03,TJK,AS,Tajikistan,38.858194,71.26218,336960633,4918894,,,,,False,False,TJ
2022-01-23,TZA,AF,Tanzania,-6.368216,34.885195,301099081,4991962,0,296107119,0,0,False,False,TZ
2022-02-03,THA,AS,Thailand,13.036597,101.492515,336960633,4918894,,,,,False,False,TH
2022-02-03,TGO,AF,Togo,8.621697,0.829685,336960633,4918894,,,,,False,False,TG
2022-02-03,TKL,OC,Tokelau,-8.967362,-171.855881,336960633,4918894,,,,,False,False,
2022-02-03,TON,OC,Tonga,-18.509023,-174.794922,336960633,4918894,,,,,False,False,
2022-02-03,TTO,NA,Trinidad and Tobago,10.687223,-61.220852,336960633,4918894,,,,,False,False,TT
2022-02-03,TUN,AF,Tunisia,33.892166,9.561556,336960633,4918894,,,,,False,False,TN
2022-02-03,TUR,AS,Turkey,38.961516,35.25175,336960633,4918894,,,,,False,True,TR
2022-02-03,TKM,AS,Turkmenistan,38.968319,59.562873,336960633,4918894,,,,,False,False,TM
2022-02-03,TCA,NA,Turks and Caicos Islands,21.692252,-71.803756,336960633,4918894,,,,,False,False,TC
2022-02-03,TUV,OC,Tuvalu,-8.221571,177.964073,336960633,4918894,,,,,False,False,TV
2022-02-03,UGA,AF,Uganda,1.365188,32.304651,336960633,4918894,,,,,False,False,UG
2021-11-18,UKR,EU,Ukraine,48.379888,31.168139,3284008,79506,2704217,500285,,,False,False,UA
2022-02-03,ARE,AS,United Arab Emirates,24.358745,53.982494,336960633,4918894,,,,,False,False,AE
2022-01-19,GBR,EU,United Kingdom,54.633221,-3.432277,16581351,152872,0,16428479,,,False,True,UK
2022-02-03,USA,NA,United States of America,36.966428,-95.844032,336960633,4918894,,,,,False,False,US
2022-02-03,VIR,NA,United States Virgin Islands,18.036736,-64.801704,336960633,4918894,,,,,False,False,VI
2022-02-03,URY,SA,Uruguay,-32.53152,-55.758328,336960633,4918894,,,,,False,False,UY
2022-02-03,UZB,AS,Uzbekistan,41.379722,64.564459,336960633,4918894,,,,,False,False,UZ
2022-02-03,VUT,OC,Vanuatu,-16.661195,168.214882,336960633,4918894,,,,,False,False,VU
2022-01-23,VEN,SA,Venezuela,6.414107,-66.578926,301099081,4991962,0,296107119,0,0,False,False,VE
2022-01-23,VNM,AS,Vietnam,15.974222,105.806431,301099081,4991962,0,296107119,0,0,False,False,VN
2022-01-23,ESH,AF,Western Sahara,24.221916,-12.886729,301099081,4991962,0,296107119,0,0,False,False,EH
2022-01-23,WWW,WW,Whole Globe,0,0,301099081,4991962,0,296107119,0,0,False,False,
2022-02-03,YEM,AS,Yemen,15.555545,48.531539,336960633,4918894,,,,,False,False,YE
2022-02-03,ZMB,AF,Zambia,-13.151917,27.852537,336960633,4918894,,,,,False,False,ZM
2022-02-03,ZWE,AF,Zimbabwe,-19.013286,29.146667,336960633,4918894,,,,,False,False,ZW
