Date,iso3,Continent,CountryName,lat,lon,CumulativePositive,CumulativeDeceased,CumulativeRecovered,CurrentlyPositive,Hospitalized,IntensiveCare,EUcountry,EUCPMcountry,NUTS
2022-05-30,AFG,AS,Afghanistan,33.930445,67.678945,458420459,5767343,,,,,False,False,AF
2022-05-29,ALB,EU,Albania,41.156986,20.181222,276101,3497,272291,313,4,0,False,False,AL
2022-05-30,DZA,AF,Algeria,28.026875,1.65284,458420459,5767343,,,,,False,False,DZ
2022-05-30,ASM,OC,American Samoa,-12.716089,-170.253983,458420459,5767343,,,,,False,False,
2022-05-25,AND,EU,Andorra,42.542268,1.596865,42894,153,,,2,,False,False,AD
2022-05-30,AGO,AF,Angola,-11.209451,17.880669,458420459,5767343,,,,,False,False,AO
2022-05-30,AIA,NA,Anguilla,18.225119,-63.07213,458420459,5767343,,,,,False,False,AI
2022-05-30,ATG,NA,Antigua and Barbuda,17.363183,-61.789423,458420459,5767343,,,,,False,False,AG
2022-05-30,ARG,SA,Argentina,-38.421295,-63.587403,458420459,5767343,,,,,False,False,AR
2022-05-30,ARM,AS,Armenia,40.066181,45.111108,458420459,5767343,,,,,False,False,AM
2022-05-30,ABW,NA,Aruba,12.517713,-69.965112,458420459,5767343,,,,,False,False,AW
2022-05-30,AUS,OC,Australia,-26.853388,133.275154,458420459,5767343,,,,,False,False,AU
2022-05-30,AUT,EU,Austria,47.697542,13.349319,4289988,19931,4246245,23812,445,38,True,True,AT
2022-05-30,AZE,AS,Azerbaijan,40.147396,47.572098,458420459,5767343,,,,,False,False,AZ
2022-05-30,BHS,NA,Bahamas,24.885993,-76.709892,458420459,5767343,,,,,False,False,BS
2022-05-30,BHR,AS,Bahrain,26.039722,50.559306,458420459,5767343,,,,,False,False,BH
2022-05-30,BGD,AS,Bangladesh,23.68764,90.351002,458420459,5767343,,,,,False,False,BD
2022-05-30,BRB,NA,Barbados,13.18355,-59.534649,458420459,5767343,,,,,False,False,BB
2022-03-31,BLR,EU,Belarus,53.711111,27.973847,962707,6819,,,,,False,False,BY
2022-04-25,BEL,EU,Belgium,50.499527,4.475402,4036113,31382,,,2742,165,True,True,BE
2022-05-30,BLZ,NA,Belize,17.192929,-88.5009,458420459,5767343,,,,,False,False,BZ
2022-05-30,BEN,AF,Benin,9.322048,2.313138,458420459,5767343,,,,,False,False,BJ
2022-05-30,BMU,NA,Bermuda,32.320236,-64.774022,458420459,5767343,,,,,False,False,BM
2022-05-30,BTN,AS,Bhutan,27.515709,90.442455,458420459,5767343,,,,,False,False,BT
2022-05-22,BOL,SA,Bolivia,-16.28835,-63.549429,454803071,5490728,0,449312343,0,0,False,False,BO
2022-05-22,BES,NA,"Bonaire, Saint Eustatius and Saba",12.160842,-68.304383,454803071,5490728,0,449312343,0,0,False,False,BQ
2022-01-05,BIH,EU,Bosnia and Herzegovina,43.892652,17.670584,295240,13547,,,,,False,False,BA
2022-05-30,BWA,AF,Botswana,-22.344029,24.680158,458420459,5767343,,,,,False,False,BW
2022-05-30,BRA,SA,Brazil,-14.242915,-53.189267,458420459,5767343,,,,,False,False,BR
2022-05-30,VGB,NA,British Virgin Islands,18.573601,-64.492065,458420459,5767343,,,,,False,False,VG
2022-05-22,BRN,AS,Brunei,4.525125,114.715443,454803071,5490728,0,449312343,0,0,False,False,BN
2022-05-30,BGR,EU,Bulgaria,42.729862,25.491667,458420459,5767343,,,,,True,True,BG
2022-05-30,BFA,AF,Burkina Faso,12.24185,-1.55676,458420459,5767343,,,,,False,False,BF
2022-05-30,BDI,AF,Burundi,-3.387918,29.920395,458420459,5767343,,,,,False,False,BI
2022-05-30,CPV,AF,Cabo Verde,16.0026,-24.014095,458420459,5767343,,,,,False,False,CV
2022-05-30,KHM,AS,Cambodia,12.54775,104.98386,458420459,5767343,,,,,False,False,KH
2022-05-30,CMR,AF,Cameroon,7.365302,12.343439,458420459,5767343,,,,,False,False,CM
2022-05-30,CAN,NA,Canada,62.393303,-96.818145,458420459,5767343,,,,,False,False,CA
2022-05-30,CYM,NA,Cayman Islands,19.512365,-80.580025,458420459,5767343,,,,,False,False,KY
2022-05-30,CAF,AF,Central African Republic,6.614041,20.941759,458420459,5767343,,,,,False,False,CF
2022-05-30,TCD,AF,Chad,15.445718,18.738068,458420459,5767343,,,,,False,False,TD
2022-05-30,CHL,SA,Chile,-36.711951,-73.601704,458420459,5767343,,,,,False,False,CL
2022-05-30,CHN,AS,China,34.668138,104.165802,458420459,5767343,,,,,False,False,CN
2022-05-30,COL,SA,Colombia,4.577317,-74.298973,458420459,5767343,,,,,False,False,CO
2022-05-30,COM,AF,Comoros,-11.875119,43.877007,458420459,5767343,,,,,False,False,KM
2022-05-22,COD,AF,"Congo, Democratic Republic of the",-4.034788,21.755028,454803071,5490728,0,449312343,0,0,False,False,CD
2022-05-22,COG,AF,"Congo, Rep. Of",-0.662071,14.927424,454803071,5490728,0,449312343,0,0,False,False,CG
2022-05-30,COK,OC,Cook Islands,-15.983639,-159.202896,458420459,5767343,,,,,False,False,
2022-05-30,CRI,NA,Costa Rica,9.624897,-84.253308,458420459,5767343,,,,,False,False,CR
2022-05-22,CIV,AF,Cote d'Ivoire,7.546855,-5.547099,454803071,5490728,0,449312343,0,0,False,False,CI
2022-05-30,HRV,EU,Croatia,44.48732,16.460306,458420459,5767343,,,,,True,True,HR
2022-05-30,CUB,NA,Cuba,21.527062,-79.544601,458420459,5767343,,,,,False,False,CU
2022-05-30,CUW,NA,Curaçao,12.209208,-68.945576,458420459,5767343,,,,,False,False,CW
2022-02-06,CYP,EU,Cyprus,35.167406,33.435499,282403,852,235162,46389,3282,,True,True,CY
2021-12-19,CZE,EU,Czech Republic,49.800901,15.478153,2406989,35288,2173844,197857,,,True,True,CZ
2021-11-30,DNK,EU,Denmark,56.155403,11.617223,483253,2883,0,480370,446,0,True,True,DK
2022-05-30,DJI,AF,Djibouti,11.808375,42.595222,458420459,5767343,,,,,False,False,DJ
2022-05-30,DMA,NA,Dominica,15.416749,-61.36413,458420459,5767343,,,,,False,False,DM
2022-05-30,DOM,NA,Dominican Republic,18.736509,-70.161744,458420459,5767343,,,,,False,False,DO
2022-05-22,TLS,OC,East Timor,-8.79973,125.677345,454803071,5490728,0,449312343,0,0,False,False,TL
2022-05-30,ECU,SA,Ecuador,-1.779901,-78.131592,458420459,5767343,,,,,False,False,EC
2022-05-30,EGY,AF,Egypt,26.696362,30.246486,458420459,5767343,,,,,False,False,EG
2022-05-30,SLV,NA,El Salvador,13.796873,-88.910412,458420459,5767343,,,,,False,False,SV
2022-05-30,GNQ,AF,Equatorial Guinea,1.633925,10.341295,458420459,5767343,,,,,False,False,GQ
2022-05-30,ERI,AF,Eritrea,15.18132,39.786709,458420459,5767343,,,,,False,False,ER
2022-05-31,EST,EU,Estonia,58.596209,25.023778,577034,,,,,,True,True,EE
2022-05-30,ETH,AF,Ethiopia,9.148086,40.493059,458420459,5767343,,,,,False,False,ET
2022-05-22,FRO,EU,Faeroe Islands,61.897846,-6.928791,454803071,5490728,0,449312343,0,0,False,False,
2022-05-30,FLK,SA,Falkland Islands (Malvinas),-51.800581,-59.528839,458420459,5767343,,,,,False,False,FK
2022-05-30,FJI,OC,Fiji,-16.578041,178.416339,458420459,5767343,,,,,False,False,FJ
2022-05-30,FIN,EU,Finland,64.952416,26.068944,1092195,846,0,1091349,,,True,True,FI
2022-05-30,FRA,EU,France,46.232193,2.209667,458420459,5767343,,,,,True,True,FR
2022-05-30,GUF,SA,French Guiana,3.951795,-53.07823,458420459,5767343,,,,,False,False,
2022-05-30,PYF,OC,French Polynesia,-17.778572,-143.903496,458420459,5767343,,,,,False,False,PF
2022-05-30,GAB,AF,Gabon,-0.828097,11.598909,458420459,5767343,,,,,False,False,GA
2022-05-30,GMB,AF,Gambia,13.445411,-15.311436,458420459,5767343,,,,,False,False,GM
2022-05-30,GEO,AS,Georgia,42.319847,43.368055,458420459,5767343,,,,,False,False,GE
2022-05-31,DEU,EU,Germany,51.165706,10.452764,26305998,139000,25311600,855398,,,True,True,DE
2022-05-30,GHA,AF,Ghana,7.955012,-1.03182,458420459,5767343,,,,,False,False,GH
2022-05-30,GIB,EU,Gibraltar,36.132235,-5.352273,458420459,5767343,,,,,False,False,GI
2022-05-30,GRC,EU,Greece,38.275283,23.810343,458420459,5767343,,,,,True,True,EL
2022-05-30,GRL,NA,Greenland,71.702379,-42.177174,458420459,5767343,,,,,False,False,
2022-05-30,GRD,NA,Grenada,12.152588,-61.689557,458420459,5767343,,,,,False,False,GD
2022-05-30,GLP,NA,Guadeloupe,16.192207,-61.272382,458420459,5767343,,,,,False,False,
2022-05-30,GUM,OC,Guam,13.446472,144.786613,458420459,5767343,,,,,False,False,GU
2022-05-30,GTM,NA,Guatemala,15.776261,-90.229744,458420459,5767343,,,,,False,False,GT
2022-05-30,GGY,EU,Guernsey,49.575693,-2.42318,458420459,5767343,,,,,False,False,GG
2022-05-30,GIN,AF,Guinea,9.934887,-11.283845,458420459,5767343,,,,,False,False,GN
2022-05-22,GNB,AF,Guinea Bissau,11.802527,-15.177029,454803071,5490728,0,449312343,0,0,False,False,GW
2022-05-30,GUY,SA,Guyana,4.866324,-58.932507,458420459,5767343,,,,,False,False,GY
2022-05-30,HTI,NA,Haiti,19.054426,-73.045971,458420459,5767343,,,,,False,False,HT
2022-05-30,VAT,EU,Holy See,41.903859,12.452041,458420459,5767343,,,,,False,False,
2022-05-30,HND,NA,Honduras,14.746333,-86.253097,458420459,5767343,,,,,False,False,HN
2022-03-10,HUN,EU,Hungary,47.164638,19.508944,1812294,446063,1646037,-279806,2499,117,True,True,HU
2022-05-30,ISL,EU,Iceland,64.963942,-19.021169,458420459,5767343,,,,,False,True,IS
2022-05-30,IND,AS,India,21.125681,82.794998,458420459,5767343,,,,,False,False,IN
2022-05-30,IDN,AS,Indonesia,-2.518722,118.015568,458420459,5767343,,,,,False,False,ID
2022-05-22,IRN,AS,Iran,32.420653,53.682375,454803071,5490728,0,449312343,0,0,False,False,IR
2022-05-30,IRQ,AS,Iraq,33.223737,43.685901,458420459,5767343,,,,,False,False,IQ
2022-05-25,IRL,EU,Ireland,53.41975,-8.240472,1561632,7304,,,39010,2661,True,True,IE
2022-05-30,IMN,EU,Isle of Man,54.23782,-4.555111,458420459,5767343,,,,,False,False,IM
2022-05-30,ISR,AS,Israel,31.418388,35.073541,458420459,5767343,,,,,False,False,IL
2022-03-29,ITA,EU,Italy,41.873987,12.564167,14496579,159054,13070647,1266878,10227,487,True,True,IT
2022-05-30,JAM,NA,Jamaica,18.115265,-77.27348,458420459,5767343,,,,,False,False,JM
2022-05-30,JPN,AS,Japan,34.886306,134.379711,458420459,5767343,,,,,False,False,JP
2022-05-30,JEY,EU,Jersey,49.217445,-2.141056,458420459,5767343,,,,,False,False,JE
2022-05-30,JOR,AS,Jordan,31.276778,37.130583,458420459,5767343,,,,,False,False,JO
2022-05-30,KAZ,AS,Kazakhstan,48.193764,66.902264,458420459,5767343,,,,,False,False,KZ
2022-05-30,KEN,AF,Kenya,0.170945,37.903969,458420459,5767343,,,,,False,False,KE
2022-05-30,KIR,OC,Kiribati,-3.358734,9.670395,458420459,5767343,,,,,False,False,
2022-05-22,XKX,EU,Kosovo,41.85637,21.803351,454803071,5490728,0,449312343,0,0,False,False,XK
2022-05-30,KWT,AS,Kuwait,29.310278,47.493515,458420459,5767343,,,,,False,False,KW
2022-05-30,KGZ,AS,Kyrgyzstan,41.205528,74.779888,458420459,5767343,,,,,False,False,KG
2022-05-22,LAO,AS,Laos,18.205208,103.895043,454803071,5490728,0,449312343,0,0,False,False,LA
2022-05-31,LVA,EU,Latvia,56.875584,24.607722,828614,5824,,,,,True,True,LV
2022-05-30,LBN,AS,Lebanon,33.872639,35.876736,458420459,5767343,,,,,False,False,LB
2022-05-30,LSO,AF,Lesotho,-29.620511,28.247414,458420459,5767343,,,,,False,False,LS
2022-05-30,LBR,AF,Liberia,6.452424,-9.428598,458420459,5767343,,,,,False,False,LR
2022-05-30,LBY,AF,Libya,26.338522,17.268816,458420459,5767343,,,,,False,False,LY
2022-05-30,LIE,EU,Liechtenstein,47.164696,9.555,458420459,5767343,,,,,False,False,LI
2022-05-30,LTU,EU,Lithuania,55.174112,23.906736,1062524,9144,1036236,17144,,,True,True,LT
2022-05-29,LUX,EU,Luxembourg,49.815764,6.131514,247935,1078,,,,,True,True,LU
2022-05-30,MDG,AF,Madagascar,-18.777192,46.854328,458420459,5767343,,,,,False,False,MG
2022-05-30,MWI,AF,Malawi,-13.24627,34.295385,458420459,5767343,,,,,False,False,MW
2022-05-30,MYS,AS,Malaysia,4.109319,109.455475,458420459,5767343,,,,,False,False,MY
2022-05-30,MDV,AS,Maldives,3.202833,73.165249,458420459,5767343,,,,,False,False,MV
2022-05-30,MLI,AF,Mali,17.579757,-3.998823,458420459,5767343,,,,,False,False,ML
2022-05-31,MLT,EU,Malta,35.946151,14.384612,94742,721,92215,1806,,,True,True,MT
2022-05-30,MHL,OC,Marshall Islands,10.10382,168.728363,458420459,5767343,,,,,False,False,
2022-05-30,MTQ,NA,Martinique,14.635541,-61.022814,458420459,5767343,,,,,False,False,
2022-05-30,MRT,AF,Mauritania,21.00681,-10.947098,458420459,5767343,,,,,False,False,MR
2022-05-30,MUS,AF,Mauritius,-15.422486,60.006449,458420459,5767343,,,,,False,False,MU
2022-05-30,MYT,AF,Mayotte,-12.824511,45.165455,458420459,5767343,,,,,False,False,
2022-05-30,MEX,NA,Mexico,23.624813,-102.57867,458420459,5767343,,,,,False,False,MX
2022-04-20,MDA,EU,Moldova,46.979527,28.377195,516864,11487,504008,1369,,,False,False,MD
2022-05-30,MCO,EU,Monaco,43.738348,7.424451,458420459,5767343,,,,,False,False,MC
2022-05-30,MNG,AS,Mongolia,46.860945,103.836986,458420459,5767343,,,,,False,False,MN
2022-05-30,MNE,EU,Montenegro,42.710152,19.410069,237148,2720,,,0,,False,True,ME
2022-05-30,MSR,NA,Montserrat,16.749415,-62.192741,458420459,5767343,,,,,False,False,MS
2022-05-30,MAR,AF,Morocco,31.792306,-7.080168,458420459,5767343,,,,,False,False,MA
2022-05-30,MOZ,AF,Mozambique,-18.670284,35.530157,458420459,5767343,,,,,False,False,MZ
2022-05-22,MMR,AS,"Myanmar, Union of",19.163916,96.68303,454803071,5490728,0,449312343,0,0,False,False,MM
2022-05-30,NAM,AF,Namibia,-22.965662,18.486165,458420459,5767343,,,,,False,False,NA
2022-05-30,NRU,OC,Nauru,-0.52832,166.922157,458420459,5767343,,,,,False,False,NR
2022-05-30,NPL,AS,Nepal,28.395056,84.127803,458420459,5767343,,,,,False,False,NP
2022-05-30,NLD,EU,Netherlands,52.133057,5.29525,458420459,5767343,,,,,True,True,NL
2022-05-30,NCL,OC,New Caledonia,-21.123889,165.846901,458420459,5767343,,,,,False,False,NC
2022-05-30,NZL,OC,New Zealand,-40.9006,174.886,458420459,5767343,,,,,False,False,NZ
2022-05-30,NIC,NA,Nicaragua,12.866726,-85.214298,458420459,5767343,,,,,False,False,NI
2022-05-30,NER,AF,Niger,17.611,8.080946,458420459,5767343,,,,,False,False,NE
2022-05-30,NGA,AF,Nigeria,9.084575,8.674252,458420459,5767343,,,,,False,False,NG
2022-05-30,NIU,OC,Niue,-19.051631,-169.86309,458420459,5767343,,,,,False,False,
2022-05-30,MKD,EU,North Macedonia,41.611,21.751417,458420459,5767343,,,,,False,True,MK
2022-05-22,MNP,OC,Northern Mariana Islands,17.331835,145.47577,454803071,5490728,0,449312343,0,0,False,False,MP
2022-05-30,NOR,EU,Norway,64.583013,17.86411,1411853,3141,0,1408712,12491,1977,False,True,NO
2022-05-30,OMN,AS,Oman,21.516861,55.859291,458420459,5767343,,,,,False,False,OM
2022-05-30,PAK,AS,Pakistan,30.441861,69.359766,458420459,5767343,,,,,False,False,PK
2022-05-30,PLW,OC,Palau,5.63663,132.920475,458420459,5767343,,,,,False,False,PW
2022-05-22,PSE,AS,Palestine,31.881464,34.894978,454803071,5490728,0,449312343,0,0,False,False,PS
2022-05-30,PAN,NA,Panama,8.41771,-80.112777,458420459,5767343,,,,,False,False,PA
2022-05-30,PNG,OC,Papua New Guinea,-6.48825,148.403152,458420459,5767343,,,,,False,False,PG
2022-05-30,PRY,SA,Paraguay,-23.451389,-58.453215,458420459,5767343,,,,,False,False,PY
2022-05-30,PER,SA,Peru,-9.181352,-75.002365,458420459,5767343,,,,,False,False,PE
2022-05-30,PHL,AS,Philippines,12.881958,121.76654,458420459,5767343,,,,,False,False,PH
2022-05-31,POL,EU,Poland,51.92275,19.136875,5919015,116318,5335425,467272,,,True,True,PL
2022-05-30,PRT,EU,Portugal,39.553444,-7.839319,458420459,5767343,,,,,True,True,PT
2022-05-30,PRI,NA,Puerto Rico,18.223285,-66.592731,458420459,5767343,,,,,False,False,PR
2022-05-30,QAT,AS,Qatar,25.318833,51.19693,458420459,5767343,,,,,False,False,QA
2022-05-30,REU,AF,Réunion,-21.114533,55.532062,458420459,5767343,,,,,False,False,
2022-03-08,ROU,EU,Romania,45.947125,24.980514,2770538,64094,,,,,True,True,RO
2022-05-30,RUS,EU,Russian Fed.,61.523111,-74.9,458420459,5767343,,,,,False,False,RU
2022-05-30,RWA,AF,Rwanda,-1.94708,29.876376,458420459,5767343,,,,,False,False,RW
2022-05-30,SHN,AF,Saint Helena,-11.953679,-10.029991,458420459,5767343,,,,,False,False,
2022-05-30,KNA,NA,Saint Kitts and Nevis,17.257731,-62.706413,458420459,5767343,,,,,False,False,KN
2022-05-30,LCA,NA,Saint Lucia,13.904011,-60.974176,458420459,5767343,,,,,False,False,LC
2022-05-30,SPM,NA,Saint Pierre and Miquelon,46.966164,-56.336825,458420459,5767343,,,,,False,False,
2022-05-30,VCT,NA,Saint Vincent and the Grenadines,12.980909,-61.287392,458420459,5767343,,,,,False,False,VC
2022-05-22,BLM,NA,Saint-Barthélemy,17.903496,-62.831448,454803071,5490728,0,449312343,0,0,False,False,BL
2022-05-30,WSM,OC,Samoa,-13.736573,-172.10717,458420459,5767343,,,,,False,False,
2022-05-30,SMR,EU,San Marino,43.942973,12.460035,458420459,5767343,,,,,False,False,SM
2022-05-30,STP,AF,Sao Tome and Principe,0.863044,6.968272,458420459,5767343,,,,,False,False,ST
2022-05-30,SAU,AS,Saudi Arabia,23.886291,45.081139,458420459,5767343,,,,,False,False,SA
2022-05-30,SEN,AF,Senegal,14.499454,-14.445562,458420459,5767343,,,,,False,False,SN
2022-05-30,SRB,EU,Serbia,44.206802,20.911009,458420459,5767343,,,,,False,True,RS
2022-05-30,SYC,AF,Seychelles,-7.018792,51.242138,458420459,5767343,,,,,False,False,SC
2022-05-30,SLE,AF,Sierra Leone,8.464806,-11.795935,458420459,5767343,,,,,False,False,SL
2022-05-30,SGP,AS,Singapore,1.364917,103.822872,458420459,5767343,,,,,False,False,SG
2022-05-22,SXM,NA,Sint Maarten (Dutch part),18.04097,-63.078516,454803071,5490728,0,449312343,0,0,False,False,SX
2022-02-09,SVK,EU,Slovakia,48.665639,19.709097,1146260,17995,,,2178,297,True,True,SK
2022-01-23,SVN,EU,Slovenia,46.145528,14.974541,611697,6264,11292,594141,636,135,True,True,SI
2022-05-30,SLB,OC,Solomon Islands,-9.220083,161.244735,458420459,5767343,,,,,False,False,SB
2022-05-30,SOM,AF,Somalia,5.152149,46.199616,458420459,5767343,,,,,False,False,SO
2022-05-30,ZAF,AF,South Africa,-28.48322,24.676997,458420459,5767343,,,,,False,False,ZA
2022-05-22,KOR,AS,South Korea,35.901696,127.735889,454803071,5490728,0,449312343,0,0,False,False,KR
2022-05-30,SSD,AF,South Sudan,7.856272,30.040413,458420459,5767343,,,,,False,False,SS
2022-05-27,ESP,EU,Spain,39.896027,-2.487694,12326264,106341,,,6980,1551,True,True,ES
2022-05-30,LKA,AS,Sri Lanka,7.874097,80.767098,458420459,5767343,,,,,False,False,LK
2022-05-30,SDN,AF,Sudan,15.45847,30.217636,458420459,5767343,,,,,False,False,SD
2022-05-30,SUR,SA,Suriname,3.917846,-56.032028,458420459,5767343,,,,,False,False,SR
2022-05-24,SWE,EU,Sweden,62.199806,17.637493,2507948,18977,,,,9117,True,True,SE
2022-05-31,CHE,EU,Switzerland,46.815514,8.224472,3498571,13848,377358,3107365,1852,129,False,False,CH
2022-05-30,SYR,AS,Syrian Arab Republic,34.814902,39.056126,458420459,5767343,,,,,False,False,SY
2022-05-22,TWN,AS,Taiwan,21.901806,121.471,454803071,5490728,0,449312343,0,0,False,False,TW
2022-05-30,TJK,AS,Tajikistan,38.858194,71.26218,458420459,5767343,,,,,False,False,TJ
2022-05-22,TZA,AF,Tanzania,-6.368216,34.885195,454803071,5490728,0,449312343,0,0,False,False,TZ
2022-05-30,THA,AS,Thailand,13.036597,101.492515,458420459,5767343,,,,,False,False,TH
2022-05-30,TGO,AF,Togo,8.621697,0.829685,458420459,5767343,,,,,False,False,TG
2022-05-30,TKL,OC,Tokelau,-8.967362,-171.855881,458420459,5767343,,,,,False,False,
2022-05-30,TON,OC,Tonga,-18.509023,-174.794922,458420459,5767343,,,,,False,False,
2022-05-30,TTO,NA,Trinidad and Tobago,10.687223,-61.220852,458420459,5767343,,,,,False,False,TT
2022-05-30,TUN,AF,Tunisia,33.892166,9.561556,458420459,5767343,,,,,False,False,TN
2022-05-30,TUR,AS,Turkey,38.961516,35.25175,458420459,5767343,,,,,False,True,TR
2022-05-30,TKM,AS,Turkmenistan,38.968319,59.562873,458420459,5767343,,,,,False,False,TM
2022-05-30,TCA,NA,Turks and Caicos Islands,21.692252,-71.803756,458420459,5767343,,,,,False,False,TC
2022-05-30,TUV,OC,Tuvalu,-8.221571,177.964073,458420459,5767343,,,,,False,False,TV
2022-05-30,UGA,AF,Uganda,1.365188,32.304651,458420459,5767343,,,,,False,False,UG
2022-05-30,UKR,EU,Ukraine,48.379888,31.168139,458420459,5767343,,,,,False,False,UA
2022-05-30,ARE,AS,United Arab Emirates,24.358745,53.982494,458420459,5767343,,,,,False,False,AE
2022-05-19,GBR,EU,United Kingdom,54.633221,-3.432277,23155433,177890,0,22977543,,,False,True,UK
2022-05-30,USA,NA,United States of America,36.966428,-95.844032,458420459,5767343,,,,,False,False,US
2022-05-30,VIR,NA,United States Virgin Islands,18.036736,-64.801704,458420459,5767343,,,,,False,False,VI
2022-05-30,URY,SA,Uruguay,-32.53152,-55.758328,458420459,5767343,,,,,False,False,UY
2022-05-30,UZB,AS,Uzbekistan,41.379722,64.564459,458420459,5767343,,,,,False,False,UZ
2022-05-30,VUT,OC,Vanuatu,-16.661195,168.214882,458420459,5767343,,,,,False,False,VU
2022-05-22,VEN,SA,Venezuela,6.414107,-66.578926,454803071,5490728,0,449312343,0,0,False,False,VE
2022-05-22,VNM,AS,Vietnam,15.974222,105.806431,454803071,5490728,0,449312343,0,0,False,False,VN
2022-05-22,ESH,AF,Western Sahara,24.221916,-12.886729,454803071,5490728,0,449312343,0,0,False,False,EH
2022-05-22,WWW,WW,Whole Globe,0,0,454803071,5490728,0,449312343,0,0,False,False,
2022-05-30,YEM,AS,Yemen,15.555545,48.531539,458420459,5767343,,,,,False,False,YE
2022-05-30,ZMB,AF,Zambia,-13.151917,27.852537,458420459,5767343,,,,,False,False,ZM
2022-05-30,ZWE,AF,Zimbabwe,-19.013286,29.146667,458420459,5767343,,,,,False,False,ZW
