Date,iso3,Continent,CountryName,lat,lon,CumulativePositive,CumulativeDeceased,CumulativeRecovered,CurrentlyPositive,Hospitalized,IntensiveCare,EUcountry,EUCPMcountry,NUTS
2022-01-14,AFG,AS,Afghanistan,33.930445,67.678945,278095970,4769047,,,,,False,False,AF
2022-01-14,ALB,EU,Albania,41.156986,20.181222,228777,3262,206384,19131,117,17,False,False,AL
2022-01-14,DZA,AF,Algeria,28.026875,1.65284,278095970,4769047,,,,,False,False,DZ
2022-01-14,ASM,OC,American Samoa,-12.716089,-170.253983,278095970,4769047,,,,,False,False,
2022-01-14,AND,EU,Andorra,42.542268,1.596865,29888,142,,,20,,False,False,AD
2022-01-14,AGO,AF,Angola,-11.209451,17.880669,278095970,4769047,,,,,False,False,AO
2022-01-14,AIA,NA,Anguilla,18.225119,-63.07213,278095970,4769047,,,,,False,False,AI
2022-01-14,ATG,NA,Antigua and Barbuda,17.363183,-61.789423,278095970,4769047,,,,,False,False,AG
2022-01-14,ARG,SA,Argentina,-38.421295,-63.587403,278095970,4769047,,,,,False,False,AR
2022-01-14,ARM,AS,Armenia,40.066181,45.111108,278095970,4769047,,,,,False,False,AM
2022-01-14,ABW,NA,Aruba,12.517713,-69.965112,278095970,4769047,,,,,False,False,AW
2022-01-14,AUS,OC,Australia,-26.853388,133.275154,278095970,4769047,,,,,False,False,AU
2022-01-13,AUT,EU,Austria,47.697542,13.349319,1410336,13456,1266551,130329,640,236,True,True,AT
2022-01-14,AZE,AS,Azerbaijan,40.147396,47.572098,278095970,4769047,,,,,False,False,AZ
2022-01-14,BHS,NA,Bahamas,24.885993,-76.709892,278095970,4769047,,,,,False,False,BS
2022-01-14,BHR,AS,Bahrain,26.039722,50.559306,278095970,4769047,,,,,False,False,BH
2022-01-14,BGD,AS,Bangladesh,23.68764,90.351002,278095970,4769047,,,,,False,False,BD
2022-01-14,BRB,NA,Barbados,13.18355,-59.534649,278095970,4769047,,,,,False,False,BB
2022-01-13,BLR,EU,Belarus,53.711111,27.973847,711723,5774,,,,,False,False,BY
2022-01-14,BEL,EU,Belgium,50.499527,4.475402,2410731,28612,,,2106,410,True,True,BE
2022-01-14,BLZ,NA,Belize,17.192929,-88.5009,278095970,4769047,,,,,False,False,BZ
2022-01-14,BEN,AF,Benin,9.322048,2.313138,278095970,4769047,,,,,False,False,BJ
2022-01-14,BMU,NA,Bermuda,32.320236,-64.774022,278095970,4769047,,,,,False,False,BM
2022-01-14,BTN,AS,Bhutan,27.515709,90.442455,278095970,4769047,,,,,False,False,BT
2022-01-09,BOL,SA,Bolivia,-16.28835,-63.549429,268810166,4917708,0,263892458,0,0,False,False,BO
2022-01-09,BES,NA,"Bonaire, Saint Eustatius and Saba",12.160842,-68.304383,268810166,4917708,0,263892458,0,0,False,False,BQ
2022-01-05,BIH,EU,Bosnia and Herzegovina,43.892652,17.670584,295240,13547,,,,,False,False,BA
2022-01-14,BWA,AF,Botswana,-22.344029,24.680158,278095970,4769047,,,,,False,False,BW
2022-01-14,BRA,SA,Brazil,-14.242915,-53.189267,278095970,4769047,,,,,False,False,BR
2022-01-14,VGB,NA,British Virgin Islands,18.573601,-64.492065,278095970,4769047,,,,,False,False,VG
2022-01-09,BRN,AS,Brunei,4.525125,114.715443,268810166,4917708,0,263892458,0,0,False,False,BN
2021-09-23,BGR,EU,Bulgaria,42.729862,25.491667,487588,20251,426266,41071,,,True,True,BG
2022-01-14,BFA,AF,Burkina Faso,12.24185,-1.55676,278095970,4769047,,,,,False,False,BF
2022-01-14,BDI,AF,Burundi,-3.387918,29.920395,278095970,4769047,,,,,False,False,BI
2022-01-14,CPV,AF,Cabo Verde,16.0026,-24.014095,278095970,4769047,,,,,False,False,CV
2022-01-14,KHM,AS,Cambodia,12.54775,104.98386,278095970,4769047,,,,,False,False,KH
2022-01-14,CMR,AF,Cameroon,7.365302,12.343439,278095970,4769047,,,,,False,False,CM
2022-01-14,CAN,NA,Canada,62.393303,-96.818145,278095970,4769047,,,,,False,False,CA
2022-01-14,CYM,NA,Cayman Islands,19.512365,-80.580025,278095970,4769047,,,,,False,False,KY
2022-01-14,CAF,AF,Central African Republic,6.614041,20.941759,278095970,4769047,,,,,False,False,CF
2022-01-14,TCD,AF,Chad,15.445718,18.738068,278095970,4769047,,,,,False,False,TD
2022-01-14,CHL,SA,Chile,-36.711951,-73.601704,278095970,4769047,,,,,False,False,CL
2022-01-14,CHN,AS,China,34.668138,104.165802,278095970,4769047,,,,,False,False,CN
2022-01-14,COL,SA,Colombia,4.577317,-74.298973,278095970,4769047,,,,,False,False,CO
2022-01-14,COM,AF,Comoros,-11.875119,43.877007,278095970,4769047,,,,,False,False,KM
2022-01-09,COD,AF,"Congo, Democratic Republic of the",-4.034788,21.755028,268810166,4917708,0,263892458,0,0,False,False,CD
2022-01-09,COG,AF,"Congo, Rep. Of",-0.662071,14.927424,268810166,4917708,0,263892458,0,0,False,False,CG
2022-01-14,COK,OC,Cook Islands,-15.983639,-159.202896,278095970,4769047,,,,,False,False,
2022-01-14,CRI,NA,Costa Rica,9.624897,-84.253308,278095970,4769047,,,,,False,False,CR
2022-01-09,CIV,AF,Cote d'Ivoire,7.546855,-5.547099,268810166,4917708,0,263892458,0,0,False,False,CI
2021-10-19,HRV,EU,Croatia,44.48732,16.460306,428233,8906,355542,63785,,,True,True,HR
2022-01-14,CUB,NA,Cuba,21.527062,-79.544601,278095970,4769047,,,,,False,False,CU
2022-01-14,CUW,NA,Curaçao,12.209208,-68.945576,278095970,4769047,,,,,False,False,CW
2022-01-13,CYP,EU,Cyprus,35.167406,33.435499,221416,768,147448,73200,3075,,True,True,CY
2021-12-19,CZE,EU,Czech Republic,49.800901,15.478153,2406989,35288,2173844,197857,,,True,True,CZ
2021-11-30,DNK,EU,Denmark,56.155403,11.617223,483253,2883,0,480370,446,0,True,True,DK
2022-01-14,DJI,AF,Djibouti,11.808375,42.595222,278095970,4769047,,,,,False,False,DJ
2022-01-14,DMA,NA,Dominica,15.416749,-61.36413,278095970,4769047,,,,,False,False,DM
2022-01-14,DOM,NA,Dominican Republic,18.736509,-70.161744,278095970,4769047,,,,,False,False,DO
2022-01-09,TLS,OC,East Timor,-8.79973,125.677345,268810166,4917708,0,263892458,0,0,False,False,TL
2022-01-14,ECU,SA,Ecuador,-1.779901,-78.131592,278095970,4769047,,,,,False,False,EC
2022-01-14,EGY,AF,Egypt,26.696362,30.246486,278095970,4769047,,,,,False,False,EG
2022-01-14,SLV,NA,El Salvador,13.796873,-88.910412,278095970,4769047,,,,,False,False,SV
2022-01-14,GNQ,AF,Equatorial Guinea,1.633925,10.341295,278095970,4769047,,,,,False,False,GQ
2022-01-14,ERI,AF,Eritrea,15.18132,39.786709,278095970,4769047,,,,,False,False,ER
2022-01-15,EST,EU,Estonia,58.596209,25.023778,264702,,,,,,True,True,EE
2022-01-14,ETH,AF,Ethiopia,9.148086,40.493059,278095970,4769047,,,,,False,False,ET
2022-01-09,FRO,EU,Faeroe Islands,61.897846,-6.928791,268810166,4917708,0,263892458,0,0,False,False,
2022-01-14,FLK,SA,Falkland Islands (Malvinas),-51.800581,-59.528839,278095970,4769047,,,,,False,False,FK
2022-01-14,FJI,OC,Fiji,-16.578041,178.416339,278095970,4769047,,,,,False,False,FJ
2022-01-14,FIN,EU,Finland,64.952416,26.068944,371137,846,0,370291,,,True,True,FI
2022-01-14,FRA,EU,France,46.232193,2.209667,278095970,4769047,,,,,True,True,FR
2022-01-14,GUF,SA,French Guiana,3.951795,-53.07823,278095970,4769047,,,,,False,False,
2022-01-14,PYF,OC,French Polynesia,-17.778572,-143.903496,278095970,4769047,,,,,False,False,PF
2022-01-14,GAB,AF,Gabon,-0.828097,11.598909,278095970,4769047,,,,,False,False,GA
2022-01-14,GMB,AF,Gambia,13.445411,-15.311436,278095970,4769047,,,,,False,False,GM
2022-01-14,GEO,AS,Georgia,42.319847,43.368055,278095970,4769047,,,,,False,False,GE
2022-01-15,DEU,EU,Germany,51.165706,10.452764,7913475,115572,6942400,855503,,,True,True,DE
2022-01-14,GHA,AF,Ghana,7.955012,-1.03182,278095970,4769047,,,,,False,False,GH
2022-01-14,GIB,EU,Gibraltar,36.132235,-5.352273,278095970,4769047,,,,,False,False,GI
2022-01-14,GRC,EU,Greece,38.275283,23.810343,278095970,4769047,,,,,True,True,EL
2022-01-14,GRL,NA,Greenland,71.702379,-42.177174,278095970,4769047,,,,,False,False,
2022-01-14,GRD,NA,Grenada,12.152588,-61.689557,278095970,4769047,,,,,False,False,GD
2022-01-14,GLP,NA,Guadeloupe,16.192207,-61.272382,278095970,4769047,,,,,False,False,
2022-01-14,GUM,OC,Guam,13.446472,144.786613,278095970,4769047,,,,,False,False,GU
2022-01-14,GTM,NA,Guatemala,15.776261,-90.229744,278095970,4769047,,,,,False,False,GT
2022-01-14,GGY,EU,Guernsey,49.575693,-2.42318,278095970,4769047,,,,,False,False,GG
2022-01-14,GIN,AF,Guinea,9.934887,-11.283845,278095970,4769047,,,,,False,False,GN
2022-01-09,GNB,AF,Guinea Bissau,11.802527,-15.177029,268810166,4917708,0,263892458,0,0,False,False,GW
2022-01-14,GUY,SA,Guyana,4.866324,-58.932507,278095970,4769047,,,,,False,False,GY
2022-01-14,HTI,NA,Haiti,19.054426,-73.045971,278095970,4769047,,,,,False,False,HT
2022-01-14,VAT,EU,Holy See,41.903859,12.452041,278095970,4769047,,,,,False,False,
2022-01-14,HND,NA,Honduras,14.746333,-86.253097,278095970,4769047,,,,,False,False,HN
2022-01-14,HUN,EU,Hungary,47.164638,19.508944,1327014,40237,1158509,128268,2611,243,True,True,HU
2022-01-14,ISL,EU,Iceland,64.963942,-19.021169,278095970,4769047,,,,,False,True,IS
2022-01-14,IND,AS,India,21.125681,82.794998,278095970,4769047,,,,,False,False,IN
2022-01-14,IDN,AS,Indonesia,-2.518722,118.015568,278095970,4769047,,,,,False,False,ID
2022-01-09,IRN,AS,Iran,32.420653,53.682375,268810166,4917708,0,263892458,0,0,False,False,IR
2022-01-14,IRQ,AS,Iraq,33.223737,43.685901,278095970,4769047,,,,,False,False,IQ
2022-01-14,IRL,EU,Ireland,53.41975,-8.240472,1078181,6035,,,21662,2300,True,True,IE
2022-01-14,IMN,EU,Isle of Man,54.23782,-4.555111,278095970,4769047,,,,,False,False,IM
2022-01-14,ISR,AS,Israel,31.418388,35.073541,278095970,4769047,,,,,False,False,IL
2022-01-14,ITA,EU,Italy,41.873987,12.564167,8356514,140548,5817138,2398828,19698,1679,True,True,IT
2022-01-14,JAM,NA,Jamaica,18.115265,-77.27348,278095970,4769047,,,,,False,False,JM
2022-01-14,JPN,AS,Japan,34.886306,134.379711,278095970,4769047,,,,,False,False,JP
2022-01-14,JEY,EU,Jersey,49.217445,-2.141056,278095970,4769047,,,,,False,False,JE
2022-01-14,JOR,AS,Jordan,31.276778,37.130583,278095970,4769047,,,,,False,False,JO
2022-01-14,KAZ,AS,Kazakhstan,48.193764,66.902264,278095970,4769047,,,,,False,False,KZ
2022-01-14,KEN,AF,Kenya,0.170945,37.903969,278095970,4769047,,,,,False,False,KE
2022-01-14,KIR,OC,Kiribati,-3.358734,9.670395,278095970,4769047,,,,,False,False,
2022-01-09,XKX,EU,Kosovo,41.85637,21.803351,268810166,4917708,0,263892458,0,0,False,False,XK
2022-01-14,KWT,AS,Kuwait,29.310278,47.493515,278095970,4769047,,,,,False,False,KW
2022-01-14,KGZ,AS,Kyrgyzstan,41.205528,74.779888,278095970,4769047,,,,,False,False,KG
2022-01-09,LAO,AS,Laos,18.205208,103.895043,268810166,4917708,0,263892458,0,0,False,False,LA
2022-01-15,LVA,EU,Latvia,56.875584,24.607722,301654,4726,,,,,True,True,LV
2022-01-14,LBN,AS,Lebanon,33.872639,35.876736,278095970,4769047,,,,,False,False,LB
2022-01-14,LSO,AF,Lesotho,-29.620511,28.247414,278095970,4769047,,,,,False,False,LS
2022-01-14,LBR,AF,Liberia,6.452424,-9.428598,278095970,4769047,,,,,False,False,LR
2022-01-14,LBY,AF,Libya,26.338522,17.268816,278095970,4769047,,,,,False,False,LY
2022-01-14,LIE,EU,Liechtenstein,47.164696,9.555,278095970,4769047,,,,,False,False,LI
2022-01-14,LTU,EU,Lithuania,55.174112,23.906736,564039,7643,516271,40125,,,True,True,LT
2022-01-13,LUX,EU,Luxembourg,49.815764,6.131514,123340,934,,,,,True,True,LU
2022-01-14,MDG,AF,Madagascar,-18.777192,46.854328,278095970,4769047,,,,,False,False,MG
2022-01-14,MWI,AF,Malawi,-13.24627,34.295385,278095970,4769047,,,,,False,False,MW
2022-01-14,MYS,AS,Malaysia,4.109319,109.455475,278095970,4769047,,,,,False,False,MY
2022-01-14,MDV,AS,Maldives,3.202833,73.165249,278095970,4769047,,,,,False,False,MV
2022-01-14,MLI,AF,Mali,17.579757,-3.998823,278095970,4769047,,,,,False,False,ML
2022-01-15,MLT,EU,Malta,35.946151,14.384612,63406,504,51752,11150,,,True,True,MT
2022-01-14,MHL,OC,Marshall Islands,10.10382,168.728363,278095970,4769047,,,,,False,False,
2022-01-14,MTQ,NA,Martinique,14.635541,-61.022814,278095970,4769047,,,,,False,False,
2022-01-14,MRT,AF,Mauritania,21.00681,-10.947098,278095970,4769047,,,,,False,False,MR
2022-01-14,MUS,AF,Mauritius,-15.422486,60.006449,278095970,4769047,,,,,False,False,MU
2022-01-14,MYT,AF,Mayotte,-12.824511,45.165455,278095970,4769047,,,,,False,False,
2022-01-14,MEX,NA,Mexico,23.624813,-102.57867,278095970,4769047,,,,,False,False,MX
2022-01-12,MDA,EU,Moldova,46.979527,28.377195,383544,10406,365530,7608,,,False,False,MD
2022-01-14,MCO,EU,Monaco,43.738348,7.424451,278095970,4769047,,,,,False,False,MC
2022-01-14,MNG,AS,Mongolia,46.860945,103.836986,278095970,4769047,,,,,False,False,MN
2022-01-14,MNE,EU,Montenegro,42.710152,19.410069,200535,2465,,,0,,False,True,ME
2022-01-14,MSR,NA,Montserrat,16.749415,-62.192741,278095970,4769047,,,,,False,False,MS
2022-01-14,MAR,AF,Morocco,31.792306,-7.080168,278095970,4769047,,,,,False,False,MA
2022-01-14,MOZ,AF,Mozambique,-18.670284,35.530157,278095970,4769047,,,,,False,False,MZ
2022-01-09,MMR,AS,"Myanmar, Union of",19.163916,96.68303,268810166,4917708,0,263892458,0,0,False,False,MM
2022-01-14,NAM,AF,Namibia,-22.965662,18.486165,278095970,4769047,,,,,False,False,NA
2022-01-14,NRU,OC,Nauru,-0.52832,166.922157,278095970,4769047,,,,,False,False,NR
2022-01-14,NPL,AS,Nepal,28.395056,84.127803,278095970,4769047,,,,,False,False,NP
2022-01-14,NLD,EU,Netherlands,52.133057,5.29525,3500915,27280,0,3473635,50144,0,True,True,NL
2022-01-14,NCL,OC,New Caledonia,-21.123889,165.846901,278095970,4769047,,,,,False,False,NC
2022-01-14,NZL,OC,New Zealand,-40.9006,174.886,278095970,4769047,,,,,False,False,NZ
2022-01-14,NIC,NA,Nicaragua,12.866726,-85.214298,278095970,4769047,,,,,False,False,NI
2022-01-14,NER,AF,Niger,17.611,8.080946,278095970,4769047,,,,,False,False,NE
2022-01-14,NGA,AF,Nigeria,9.084575,8.674252,278095970,4769047,,,,,False,False,NG
2022-01-14,NIU,OC,Niue,-19.051631,-169.86309,278095970,4769047,,,,,False,False,
2022-01-14,MKD,EU,North Macedonia,41.611,21.751417,278095970,4769047,,,,,False,True,MK
2022-01-09,MNP,OC,Northern Mariana Islands,17.331835,145.47577,268810166,4917708,0,263892458,0,0,False,False,MP
2022-01-14,NOR,EU,Norway,64.583013,17.86411,473917,1381,0,472536,7487,1515,False,True,NO
2022-01-14,OMN,AS,Oman,21.516861,55.859291,278095970,4769047,,,,,False,False,OM
2022-01-14,PAK,AS,Pakistan,30.441861,69.359766,278095970,4769047,,,,,False,False,PK
2022-01-14,PLW,OC,Palau,5.63663,132.920475,278095970,4769047,,,,,False,False,PW
2022-01-09,PSE,AS,Palestine,31.881464,34.894978,268810166,4917708,0,263892458,0,0,False,False,PS
2022-01-14,PAN,NA,Panama,8.41771,-80.112777,278095970,4769047,,,,,False,False,PA
2022-01-14,PNG,OC,Papua New Guinea,-6.48825,148.403152,278095970,4769047,,,,,False,False,PG
2022-01-14,PRY,SA,Paraguay,-23.451389,-58.453215,278095970,4769047,,,,,False,False,PY
2022-01-14,PER,SA,Peru,-9.181352,-75.002365,278095970,4769047,,,,,False,False,PE
2022-01-14,PHL,AS,Philippines,12.881958,121.76654,278095970,4769047,,,,,False,False,PH
2022-01-15,POL,EU,Poland,51.92275,19.136875,4298375,102270,3780013,416092,,,True,True,PL
2022-01-14,PRT,EU,Portugal,39.553444,-7.839319,278095970,4769047,,,,,True,True,PT
2022-01-14,PRI,NA,Puerto Rico,18.223285,-66.592731,278095970,4769047,,,,,False,False,PR
2022-01-14,QAT,AS,Qatar,25.318833,51.19693,278095970,4769047,,,,,False,False,QA
2022-01-14,REU,AF,Réunion,-21.114533,55.532062,278095970,4769047,,,,,False,False,
2022-01-15,ROU,EU,Romania,45.947125,24.980514,1884621,59212,,,,,True,True,RO
2021-10-15,RUS,EU,Russian Fed.,61.523111,-74.9,7925176,223429,6960024,741723,0,0,False,False,RU
2022-01-14,RWA,AF,Rwanda,-1.94708,29.876376,278095970,4769047,,,,,False,False,RW
2022-01-14,SHN,AF,Saint Helena,-11.953679,-10.029991,278095970,4769047,,,,,False,False,
2022-01-14,KNA,NA,Saint Kitts and Nevis,17.257731,-62.706413,278095970,4769047,,,,,False,False,KN
2022-01-14,LCA,NA,Saint Lucia,13.904011,-60.974176,278095970,4769047,,,,,False,False,LC
2022-01-14,SPM,NA,Saint Pierre and Miquelon,46.966164,-56.336825,278095970,4769047,,,,,False,False,
2022-01-14,VCT,NA,Saint Vincent and the Grenadines,12.980909,-61.287392,278095970,4769047,,,,,False,False,VC
2022-01-09,BLM,NA,Saint-Barthélemy,17.903496,-62.831448,268810166,4917708,0,263892458,0,0,False,False,BL
2022-01-14,WSM,OC,Samoa,-13.736573,-172.10717,278095970,4769047,,,,,False,False,
2022-01-14,SMR,EU,San Marino,43.942973,12.460035,278095970,4769047,,,,,False,False,SM
2022-01-14,STP,AF,Sao Tome and Principe,0.863044,6.968272,278095970,4769047,,,,,False,False,ST
2022-01-14,SAU,AS,Saudi Arabia,23.886291,45.081139,278095970,4769047,,,,,False,False,SA
2022-01-14,SEN,AF,Senegal,14.499454,-14.445562,278095970,4769047,,,,,False,False,SN
2022-01-14,SRB,EU,Serbia,44.206802,20.911009,278095970,4769047,,,,,False,True,RS
2022-01-14,SYC,AF,Seychelles,-7.018792,51.242138,278095970,4769047,,,,,False,False,SC
2022-01-14,SLE,AF,Sierra Leone,8.464806,-11.795935,278095970,4769047,,,,,False,False,SL
2022-01-14,SGP,AS,Singapore,1.364917,103.822872,278095970,4769047,,,,,False,False,SG
2022-01-09,SXM,NA,Sint Maarten (Dutch part),18.04097,-63.078516,268810166,4917708,0,263892458,0,0,False,False,SX
2022-01-15,SVK,EU,Slovakia,48.665639,19.709097,876448,17252,,,1804,382,True,True,SK
2022-01-14,SVN,EU,Slovenia,46.145528,14.974541,527279,6177,10915,510187,514,156,True,True,SI
2022-01-14,SLB,OC,Solomon Islands,-9.220083,161.244735,278095970,4769047,,,,,False,False,SB
2022-01-14,SOM,AF,Somalia,5.152149,46.199616,278095970,4769047,,,,,False,False,SO
2022-01-14,ZAF,AF,South Africa,-28.48322,24.676997,278095970,4769047,,,,,False,False,ZA
2022-01-09,KOR,AS,South Korea,35.901696,127.735889,268810166,4917708,0,263892458,0,0,False,False,KR
2022-01-14,SSD,AF,South Sudan,7.856272,30.040413,278095970,4769047,,,,,False,False,SS
2022-01-12,ESP,EU,Spain,39.896027,-2.487694,7771367,90508,,,17028,2228,True,True,ES
2022-01-14,LKA,AS,Sri Lanka,7.874097,80.767098,278095970,4769047,,,,,False,False,LK
2022-01-14,SDN,AF,Sudan,15.45847,30.217636,278095970,4769047,,,,,False,False,SD
2022-01-14,SUR,SA,Suriname,3.917846,-56.032028,278095970,4769047,,,,,False,False,SR
2022-01-13,SWE,EU,Sweden,62.199806,17.637493,1560363,15513,,,,8392,True,True,SE
2022-01-15,CHE,EU,Switzerland,46.815514,8.224472,1625055,12567,194501,1417987,1937,269,False,False,CH
2022-01-14,SYR,AS,Syrian Arab Republic,34.814902,39.056126,278095970,4769047,,,,,False,False,SY
2022-01-09,TWN,AS,Taiwan,21.901806,121.471,268810166,4917708,0,263892458,0,0,False,False,TW
2022-01-14,TJK,AS,Tajikistan,38.858194,71.26218,278095970,4769047,,,,,False,False,TJ
2022-01-09,TZA,AF,Tanzania,-6.368216,34.885195,268810166,4917708,0,263892458,0,0,False,False,TZ
2022-01-14,THA,AS,Thailand,13.036597,101.492515,278095970,4769047,,,,,False,False,TH
2022-01-14,TGO,AF,Togo,8.621697,0.829685,278095970,4769047,,,,,False,False,TG
2022-01-14,TKL,OC,Tokelau,-8.967362,-171.855881,278095970,4769047,,,,,False,False,
2022-01-14,TON,OC,Tonga,-18.509023,-174.794922,278095970,4769047,,,,,False,False,
2022-01-14,TTO,NA,Trinidad and Tobago,10.687223,-61.220852,278095970,4769047,,,,,False,False,TT
2022-01-14,TUN,AF,Tunisia,33.892166,9.561556,278095970,4769047,,,,,False,False,TN
2022-01-14,TUR,AS,Turkey,38.961516,35.25175,278095970,4769047,,,,,False,True,TR
2022-01-14,TKM,AS,Turkmenistan,38.968319,59.562873,278095970,4769047,,,,,False,False,TM
2022-01-14,TCA,NA,Turks and Caicos Islands,21.692252,-71.803756,278095970,4769047,,,,,False,False,TC
2022-01-14,TUV,OC,Tuvalu,-8.221571,177.964073,278095970,4769047,,,,,False,False,TV
2022-01-14,UGA,AF,Uganda,1.365188,32.304651,278095970,4769047,,,,,False,False,UG
2021-11-18,UKR,EU,Ukraine,48.379888,31.168139,3284008,79506,2704217,500285,,,False,False,UA
2022-01-14,ARE,AS,United Arab Emirates,24.358745,53.982494,278095970,4769047,,,,,False,False,AE
2022-01-12,GBR,EU,United Kingdom,54.633221,-3.432277,14768605,151007,0,14617598,,,False,True,UK
2022-01-14,USA,NA,United States of America,36.966428,-95.844032,278095970,4769047,,,,,False,False,US
2022-01-14,VIR,NA,United States Virgin Islands,18.036736,-64.801704,278095970,4769047,,,,,False,False,VI
2022-01-14,URY,SA,Uruguay,-32.53152,-55.758328,278095970,4769047,,,,,False,False,UY
2022-01-14,UZB,AS,Uzbekistan,41.379722,64.564459,278095970,4769047,,,,,False,False,UZ
2022-01-14,VUT,OC,Vanuatu,-16.661195,168.214882,278095970,4769047,,,,,False,False,VU
2022-01-09,VEN,SA,Venezuela,6.414107,-66.578926,268810166,4917708,0,263892458,0,0,False,False,VE
2022-01-09,VNM,AS,Vietnam,15.974222,105.806431,268810166,4917708,0,263892458,0,0,False,False,VN
2022-01-09,ESH,AF,Western Sahara,24.221916,-12.886729,268810166,4917708,0,263892458,0,0,False,False,EH
2022-01-09,WWW,WW,Whole Globe,0,0,268810166,4917708,0,263892458,0,0,False,False,
2022-01-14,YEM,AS,Yemen,15.555545,48.531539,278095970,4769047,,,,,False,False,YE
2022-01-14,ZMB,AF,Zambia,-13.151917,27.852537,278095970,4769047,,,,,False,False,ZM
2022-01-14,ZWE,AF,Zimbabwe,-19.013286,29.146667,278095970,4769047,,,,,False,False,ZW
