Date,iso3,Continent,CountryName,lat,lon,CumulativePositive,CumulativeDeceased,CumulativeRecovered,CurrentlyPositive,Hospitalized,IntensiveCare,EUcountry,EUCPMcountry,NUTS
2022-03-03,AFG,AS,Afghanistan,33.930445,67.678945,380545242,5152921,,,,,False,False,AF
2022-03-02,ALB,EU,Albania,41.156986,20.181222,271825,3474,279966,-11615,38,7,False,False,AL
2022-03-03,DZA,AF,Algeria,28.026875,1.65284,380545242,5152921,,,,,False,False,DZ
2022-03-03,ASM,OC,American Samoa,-12.716089,-170.253983,380545242,5152921,,,,,False,False,
2022-03-03,AND,EU,Andorra,42.542268,1.596865,38342,151,,,13,,False,False,AD
2022-03-03,AGO,AF,Angola,-11.209451,17.880669,380545242,5152921,,,,,False,False,AO
2022-03-03,AIA,NA,Anguilla,18.225119,-63.07213,380545242,5152921,,,,,False,False,AI
2022-03-03,ATG,NA,Antigua and Barbuda,17.363183,-61.789423,380545242,5152921,,,,,False,False,AG
2022-03-03,ARG,SA,Argentina,-38.421295,-63.587403,380545242,5152921,,,,,False,False,AR
2022-03-03,ARM,AS,Armenia,40.066181,45.111108,380545242,5152921,,,,,False,False,AM
2022-03-03,ABW,NA,Aruba,12.517713,-69.965112,380545242,5152921,,,,,False,False,AW
2022-03-03,AUS,OC,Australia,-26.853388,133.275154,380545242,5152921,,,,,False,False,AU
2022-03-02,AUT,EU,Austria,47.697542,13.349319,2798568,14337,2489963,294268,2406,188,True,True,AT
2022-03-03,AZE,AS,Azerbaijan,40.147396,47.572098,380545242,5152921,,,,,False,False,AZ
2022-03-03,BHS,NA,Bahamas,24.885993,-76.709892,380545242,5152921,,,,,False,False,BS
2022-03-03,BHR,AS,Bahrain,26.039722,50.559306,380545242,5152921,,,,,False,False,BH
2022-03-03,BGD,AS,Bangladesh,23.68764,90.351002,380545242,5152921,,,,,False,False,BD
2022-03-03,BRB,NA,Barbados,13.18355,-59.534649,380545242,5152921,,,,,False,False,BB
2022-03-03,BLR,EU,Belarus,53.711111,27.973847,925515,6521,,,,,False,False,BY
2022-03-02,BEL,EU,Belgium,50.499527,4.475402,3571579,30217,,,2135,214,True,True,BE
2022-03-03,BLZ,NA,Belize,17.192929,-88.5009,380545242,5152921,,,,,False,False,BZ
2022-03-03,BEN,AF,Benin,9.322048,2.313138,380545242,5152921,,,,,False,False,BJ
2022-03-03,BMU,NA,Bermuda,32.320236,-64.774022,380545242,5152921,,,,,False,False,BM
2022-03-03,BTN,AS,Bhutan,27.515709,90.442455,380545242,5152921,,,,,False,False,BT
2022-02-27,BOL,SA,Bolivia,-16.28835,-63.549429,371595423,5242872,0,366352551,0,0,False,False,BO
2022-02-27,BES,NA,"Bonaire, Saint Eustatius and Saba",12.160842,-68.304383,371595423,5242872,0,366352551,0,0,False,False,BQ
2022-01-05,BIH,EU,Bosnia and Herzegovina,43.892652,17.670584,295240,13547,,,,,False,False,BA
2022-03-03,BWA,AF,Botswana,-22.344029,24.680158,380545242,5152921,,,,,False,False,BW
2022-03-03,BRA,SA,Brazil,-14.242915,-53.189267,380545242,5152921,,,,,False,False,BR
2022-03-03,VGB,NA,British Virgin Islands,18.573601,-64.492065,380545242,5152921,,,,,False,False,VG
2022-02-27,BRN,AS,Brunei,4.525125,114.715443,371595423,5242872,0,366352551,0,0,False,False,BN
2021-09-23,BGR,EU,Bulgaria,42.729862,25.491667,487588,20251,426266,41071,,,True,True,BG
2022-03-03,BFA,AF,Burkina Faso,12.24185,-1.55676,380545242,5152921,,,,,False,False,BF
2022-03-03,BDI,AF,Burundi,-3.387918,29.920395,380545242,5152921,,,,,False,False,BI
2022-03-03,CPV,AF,Cabo Verde,16.0026,-24.014095,380545242,5152921,,,,,False,False,CV
2022-03-03,KHM,AS,Cambodia,12.54775,104.98386,380545242,5152921,,,,,False,False,KH
2022-03-03,CMR,AF,Cameroon,7.365302,12.343439,380545242,5152921,,,,,False,False,CM
2022-03-03,CAN,NA,Canada,62.393303,-96.818145,380545242,5152921,,,,,False,False,CA
2022-03-03,CYM,NA,Cayman Islands,19.512365,-80.580025,380545242,5152921,,,,,False,False,KY
2022-03-03,CAF,AF,Central African Republic,6.614041,20.941759,380545242,5152921,,,,,False,False,CF
2022-03-03,TCD,AF,Chad,15.445718,18.738068,380545242,5152921,,,,,False,False,TD
2022-03-03,CHL,SA,Chile,-36.711951,-73.601704,380545242,5152921,,,,,False,False,CL
2022-03-03,CHN,AS,China,34.668138,104.165802,380545242,5152921,,,,,False,False,CN
2022-03-03,COL,SA,Colombia,4.577317,-74.298973,380545242,5152921,,,,,False,False,CO
2022-03-03,COM,AF,Comoros,-11.875119,43.877007,380545242,5152921,,,,,False,False,KM
2022-02-27,COD,AF,"Congo, Democratic Republic of the",-4.034788,21.755028,371595423,5242872,0,366352551,0,0,False,False,CD
2022-02-27,COG,AF,"Congo, Rep. Of",-0.662071,14.927424,371595423,5242872,0,366352551,0,0,False,False,CG
2022-03-03,COK,OC,Cook Islands,-15.983639,-159.202896,380545242,5152921,,,,,False,False,
2022-03-03,CRI,NA,Costa Rica,9.624897,-84.253308,380545242,5152921,,,,,False,False,CR
2022-02-27,CIV,AF,Cote d'Ivoire,7.546855,-5.547099,371595423,5242872,0,366352551,0,0,False,False,CI
2022-03-03,HRV,EU,Croatia,44.48732,16.460306,380545242,5152921,,,,,True,True,HR
2022-03-03,CUB,NA,Cuba,21.527062,-79.544601,380545242,5152921,,,,,False,False,CU
2022-03-03,CUW,NA,Curaçao,12.209208,-68.945576,380545242,5152921,,,,,False,False,CW
2022-02-06,CYP,EU,Cyprus,35.167406,33.435499,282403,852,235162,46389,3282,,True,True,CY
2021-12-19,CZE,EU,Czech Republic,49.800901,15.478153,2406989,35288,2173844,197857,,,True,True,CZ
2021-11-30,DNK,EU,Denmark,56.155403,11.617223,483253,2883,0,480370,446,0,True,True,DK
2022-03-03,DJI,AF,Djibouti,11.808375,42.595222,380545242,5152921,,,,,False,False,DJ
2022-03-03,DMA,NA,Dominica,15.416749,-61.36413,380545242,5152921,,,,,False,False,DM
2022-03-03,DOM,NA,Dominican Republic,18.736509,-70.161744,380545242,5152921,,,,,False,False,DO
2022-02-27,TLS,OC,East Timor,-8.79973,125.677345,371595423,5242872,0,366352551,0,0,False,False,TL
2022-03-03,ECU,SA,Ecuador,-1.779901,-78.131592,380545242,5152921,,,,,False,False,EC
2022-03-03,EGY,AF,Egypt,26.696362,30.246486,380545242,5152921,,,,,False,False,EG
2022-03-03,SLV,NA,El Salvador,13.796873,-88.910412,380545242,5152921,,,,,False,False,SV
2022-03-03,GNQ,AF,Equatorial Guinea,1.633925,10.341295,380545242,5152921,,,,,False,False,GQ
2022-03-03,ERI,AF,Eritrea,15.18132,39.786709,380545242,5152921,,,,,False,False,ER
2022-03-03,EST,EU,Estonia,58.596209,25.023778,507711,,,,,,True,True,EE
2022-03-03,ETH,AF,Ethiopia,9.148086,40.493059,380545242,5152921,,,,,False,False,ET
2022-02-27,FRO,EU,Faeroe Islands,61.897846,-6.928791,371595423,5242872,0,366352551,0,0,False,False,
2022-03-03,FLK,SA,Falkland Islands (Malvinas),-51.800581,-59.528839,380545242,5152921,,,,,False,False,FK
2022-03-03,FJI,OC,Fiji,-16.578041,178.416339,380545242,5152921,,,,,False,False,FJ
2022-03-03,FIN,EU,Finland,64.952416,26.068944,664590,846,0,663744,,,True,True,FI
2022-03-03,FRA,EU,France,46.232193,2.209667,380545242,5152921,,,,,True,True,FR
2022-03-03,GUF,SA,French Guiana,3.951795,-53.07823,380545242,5152921,,,,,False,False,
2022-03-03,PYF,OC,French Polynesia,-17.778572,-143.903496,380545242,5152921,,,,,False,False,PF
2022-03-03,GAB,AF,Gabon,-0.828097,11.598909,380545242,5152921,,,,,False,False,GA
2022-03-03,GMB,AF,Gambia,13.445411,-15.311436,380545242,5152921,,,,,False,False,GM
2022-03-03,GEO,AS,Georgia,42.319847,43.368055,380545242,5152921,,,,,False,False,GE
2022-03-03,DEU,EU,Germany,51.165706,10.452764,15264299,123505,11696600,3444194,,,True,True,DE
2022-03-03,GHA,AF,Ghana,7.955012,-1.03182,380545242,5152921,,,,,False,False,GH
2022-03-03,GIB,EU,Gibraltar,36.132235,-5.352273,380545242,5152921,,,,,False,False,GI
2022-03-03,GRC,EU,Greece,38.275283,23.810343,380545242,5152921,,,,,True,True,EL
2022-03-03,GRL,NA,Greenland,71.702379,-42.177174,380545242,5152921,,,,,False,False,
2022-03-03,GRD,NA,Grenada,12.152588,-61.689557,380545242,5152921,,,,,False,False,GD
2022-03-03,GLP,NA,Guadeloupe,16.192207,-61.272382,380545242,5152921,,,,,False,False,
2022-03-03,GUM,OC,Guam,13.446472,144.786613,380545242,5152921,,,,,False,False,GU
2022-03-03,GTM,NA,Guatemala,15.776261,-90.229744,380545242,5152921,,,,,False,False,GT
2022-03-03,GGY,EU,Guernsey,49.575693,-2.42318,380545242,5152921,,,,,False,False,GG
2022-03-03,GIN,AF,Guinea,9.934887,-11.283845,380545242,5152921,,,,,False,False,GN
2022-02-27,GNB,AF,Guinea Bissau,11.802527,-15.177029,371595423,5242872,0,366352551,0,0,False,False,GW
2022-03-03,GUY,SA,Guyana,4.866324,-58.932507,380545242,5152921,,,,,False,False,GY
2022-03-03,HTI,NA,Haiti,19.054426,-73.045971,380545242,5152921,,,,,False,False,HT
2022-03-03,VAT,EU,Holy See,41.903859,12.452041,380545242,5152921,,,,,False,False,
2022-03-03,HND,NA,Honduras,14.746333,-86.253097,380545242,5152921,,,,,False,False,HN
2022-02-03,HUN,EU,Hungary,47.164638,19.508944,1600411,413636,1330876,-144101,4451,163,True,True,HU
2022-03-03,ISL,EU,Iceland,64.963942,-19.021169,380545242,5152921,,,,,False,True,IS
2022-03-03,IND,AS,India,21.125681,82.794998,380545242,5152921,,,,,False,False,IN
2022-03-03,IDN,AS,Indonesia,-2.518722,118.015568,380545242,5152921,,,,,False,False,ID
2022-02-27,IRN,AS,Iran,32.420653,53.682375,371595423,5242872,0,366352551,0,0,False,False,IR
2022-03-03,IRQ,AS,Iraq,33.223737,43.685901,380545242,5152921,,,,,False,False,IQ
2022-03-03,IRL,EU,Ireland,53.41975,-8.240472,1311105,6527,,,29323,2511,True,True,IE
2022-03-03,IMN,EU,Isle of Man,54.23782,-4.555111,380545242,5152921,,,,,False,False,IM
2022-03-03,ISR,AS,Israel,31.418388,35.073541,380545242,5152921,,,,,False,False,IL
2022-03-03,ITA,EU,Italy,41.873987,12.564167,12910506,155399,11713645,1041462,10253,654,True,True,IT
2022-03-03,JAM,NA,Jamaica,18.115265,-77.27348,380545242,5152921,,,,,False,False,JM
2022-03-03,JPN,AS,Japan,34.886306,134.379711,380545242,5152921,,,,,False,False,JP
2022-03-03,JEY,EU,Jersey,49.217445,-2.141056,380545242,5152921,,,,,False,False,JE
2022-03-03,JOR,AS,Jordan,31.276778,37.130583,380545242,5152921,,,,,False,False,JO
2022-03-03,KAZ,AS,Kazakhstan,48.193764,66.902264,380545242,5152921,,,,,False,False,KZ
2022-03-03,KEN,AF,Kenya,0.170945,37.903969,380545242,5152921,,,,,False,False,KE
2022-03-03,KIR,OC,Kiribati,-3.358734,9.670395,380545242,5152921,,,,,False,False,
2022-02-27,XKX,EU,Kosovo,41.85637,21.803351,371595423,5242872,0,366352551,0,0,False,False,XK
2022-03-03,KWT,AS,Kuwait,29.310278,47.493515,380545242,5152921,,,,,False,False,KW
2022-03-03,KGZ,AS,Kyrgyzstan,41.205528,74.779888,380545242,5152921,,,,,False,False,KG
2022-02-27,LAO,AS,Laos,18.205208,103.895043,371595423,5242872,0,366352551,0,0,False,False,LA
2022-03-03,LVA,EU,Latvia,56.875584,24.607722,682118,5284,,,,,True,True,LV
2022-03-03,LBN,AS,Lebanon,33.872639,35.876736,380545242,5152921,,,,,False,False,LB
2022-03-03,LSO,AF,Lesotho,-29.620511,28.247414,380545242,5152921,,,,,False,False,LS
2022-03-03,LBR,AF,Liberia,6.452424,-9.428598,380545242,5152921,,,,,False,False,LR
2022-03-03,LBY,AF,Libya,26.338522,17.268816,380545242,5152921,,,,,False,False,LY
2022-03-03,LIE,EU,Liechtenstein,47.164696,9.555,380545242,5152921,,,,,False,False,LI
2022-03-02,LTU,EU,Lithuania,55.174112,23.906736,918569,8484,828211,81874,,,True,True,LT
2022-03-02,LUX,EU,Luxembourg,49.815764,6.131514,185707,995,,,,,True,True,LU
2022-03-03,MDG,AF,Madagascar,-18.777192,46.854328,380545242,5152921,,,,,False,False,MG
2022-03-03,MWI,AF,Malawi,-13.24627,34.295385,380545242,5152921,,,,,False,False,MW
2022-03-03,MYS,AS,Malaysia,4.109319,109.455475,380545242,5152921,,,,,False,False,MY
2022-03-03,MDV,AS,Maldives,3.202833,73.165249,380545242,5152921,,,,,False,False,MV
2022-03-03,MLI,AF,Mali,17.579757,-3.998823,380545242,5152921,,,,,False,False,ML
2022-03-03,MLT,EU,Malta,35.946151,14.384612,71578,607,69801,1170,,,True,True,MT
2022-03-03,MHL,OC,Marshall Islands,10.10382,168.728363,380545242,5152921,,,,,False,False,
2022-03-03,MTQ,NA,Martinique,14.635541,-61.022814,380545242,5152921,,,,,False,False,
2022-03-03,MRT,AF,Mauritania,21.00681,-10.947098,380545242,5152921,,,,,False,False,MR
2022-03-03,MUS,AF,Mauritius,-15.422486,60.006449,380545242,5152921,,,,,False,False,MU
2022-03-03,MYT,AF,Mayotte,-12.824511,45.165455,380545242,5152921,,,,,False,False,
2022-03-03,MEX,NA,Mexico,23.624813,-102.57867,380545242,5152921,,,,,False,False,MX
2022-03-01,MDA,EU,Moldova,46.979527,28.377195,502956,11242,478895,12819,,,False,False,MD
2022-03-03,MCO,EU,Monaco,43.738348,7.424451,380545242,5152921,,,,,False,False,MC
2022-03-03,MNG,AS,Mongolia,46.860945,103.836986,380545242,5152921,,,,,False,False,MN
2022-03-03,MNE,EU,Montenegro,42.710152,19.410069,230631,2682,,,0,,False,True,ME
2022-03-03,MSR,NA,Montserrat,16.749415,-62.192741,380545242,5152921,,,,,False,False,MS
2022-03-03,MAR,AF,Morocco,31.792306,-7.080168,380545242,5152921,,,,,False,False,MA
2022-03-03,MOZ,AF,Mozambique,-18.670284,35.530157,380545242,5152921,,,,,False,False,MZ
2022-02-27,MMR,AS,"Myanmar, Union of",19.163916,96.68303,371595423,5242872,0,366352551,0,0,False,False,MM
2022-03-03,NAM,AF,Namibia,-22.965662,18.486165,380545242,5152921,,,,,False,False,NA
2022-03-03,NRU,OC,Nauru,-0.52832,166.922157,380545242,5152921,,,,,False,False,NR
2022-03-03,NPL,AS,Nepal,28.395056,84.127803,380545242,5152921,,,,,False,False,NP
2022-03-03,NLD,EU,Netherlands,52.133057,5.29525,6504869,27727,0,6477142,3581537,0,True,True,NL
2022-03-03,NCL,OC,New Caledonia,-21.123889,165.846901,380545242,5152921,,,,,False,False,NC
2022-03-03,NZL,OC,New Zealand,-40.9006,174.886,380545242,5152921,,,,,False,False,NZ
2022-03-03,NIC,NA,Nicaragua,12.866726,-85.214298,380545242,5152921,,,,,False,False,NI
2022-03-03,NER,AF,Niger,17.611,8.080946,380545242,5152921,,,,,False,False,NE
2022-03-03,NGA,AF,Nigeria,9.084575,8.674252,380545242,5152921,,,,,False,False,NG
2022-03-03,NIU,OC,Niue,-19.051631,-169.86309,380545242,5152921,,,,,False,False,
2022-03-03,MKD,EU,North Macedonia,41.611,21.751417,380545242,5152921,,,,,False,True,MK
2022-02-27,MNP,OC,Northern Mariana Islands,17.331835,145.47577,371595423,5242872,0,366352551,0,0,False,False,MP
2022-03-03,NOR,EU,Norway,64.583013,17.86411,1260214,1664,0,1258550,9618,1711,False,True,NO
2022-03-03,OMN,AS,Oman,21.516861,55.859291,380545242,5152921,,,,,False,False,OM
2022-03-03,PAK,AS,Pakistan,30.441861,69.359766,380545242,5152921,,,,,False,False,PK
2022-03-03,PLW,OC,Palau,5.63663,132.920475,380545242,5152921,,,,,False,False,PW
2022-02-27,PSE,AS,Palestine,31.881464,34.894978,371595423,5242872,0,366352551,0,0,False,False,PS
2022-03-03,PAN,NA,Panama,8.41771,-80.112777,380545242,5152921,,,,,False,False,PA
2022-03-03,PNG,OC,Papua New Guinea,-6.48825,148.403152,380545242,5152921,,,,,False,False,PG
2022-03-03,PRY,SA,Paraguay,-23.451389,-58.453215,380545242,5152921,,,,,False,False,PY
2022-03-03,PER,SA,Peru,-9.181352,-75.002365,380545242,5152921,,,,,False,False,PE
2022-03-03,PHL,AS,Philippines,12.881958,121.76654,380545242,5152921,,,,,False,False,PH
2022-03-03,POL,EU,Poland,51.92275,19.136875,5651454,112130,5099515,439809,,,True,True,PL
2022-03-03,PRT,EU,Portugal,39.553444,-7.839319,380545242,5152921,,,,,True,True,PT
2022-03-03,PRI,NA,Puerto Rico,18.223285,-66.592731,380545242,5152921,,,,,False,False,PR
2022-03-03,QAT,AS,Qatar,25.318833,51.19693,380545242,5152921,,,,,False,False,QA
2022-03-03,REU,AF,Réunion,-21.114533,55.532062,380545242,5152921,,,,,False,False,
2022-03-03,ROU,EU,Romania,45.947125,24.980514,2747123,63782,,,,,True,True,RO
2021-10-15,RUS,EU,Russian Fed.,61.523111,-74.9,7925176,223429,6960024,741723,0,0,False,False,RU
2022-03-03,RWA,AF,Rwanda,-1.94708,29.876376,380545242,5152921,,,,,False,False,RW
2022-03-03,SHN,AF,Saint Helena,-11.953679,-10.029991,380545242,5152921,,,,,False,False,
2022-03-03,KNA,NA,Saint Kitts and Nevis,17.257731,-62.706413,380545242,5152921,,,,,False,False,KN
2022-03-03,LCA,NA,Saint Lucia,13.904011,-60.974176,380545242,5152921,,,,,False,False,LC
2022-03-03,SPM,NA,Saint Pierre and Miquelon,46.966164,-56.336825,380545242,5152921,,,,,False,False,
2022-03-03,VCT,NA,Saint Vincent and the Grenadines,12.980909,-61.287392,380545242,5152921,,,,,False,False,VC
2022-02-27,BLM,NA,Saint-Barthélemy,17.903496,-62.831448,371595423,5242872,0,366352551,0,0,False,False,BL
2022-03-03,WSM,OC,Samoa,-13.736573,-172.10717,380545242,5152921,,,,,False,False,
2022-03-03,SMR,EU,San Marino,43.942973,12.460035,380545242,5152921,,,,,False,False,SM
2022-03-03,STP,AF,Sao Tome and Principe,0.863044,6.968272,380545242,5152921,,,,,False,False,ST
2022-03-03,SAU,AS,Saudi Arabia,23.886291,45.081139,380545242,5152921,,,,,False,False,SA
2022-03-03,SEN,AF,Senegal,14.499454,-14.445562,380545242,5152921,,,,,False,False,SN
2022-03-03,SRB,EU,Serbia,44.206802,20.911009,380545242,5152921,,,,,False,True,RS
2022-03-03,SYC,AF,Seychelles,-7.018792,51.242138,380545242,5152921,,,,,False,False,SC
2022-03-03,SLE,AF,Sierra Leone,8.464806,-11.795935,380545242,5152921,,,,,False,False,SL
2022-03-03,SGP,AS,Singapore,1.364917,103.822872,380545242,5152921,,,,,False,False,SG
2022-02-27,SXM,NA,Sint Maarten (Dutch part),18.04097,-63.078516,371595423,5242872,0,366352551,0,0,False,False,SX
2022-02-09,SVK,EU,Slovakia,48.665639,19.709097,1146260,17995,,,2178,297,True,True,SK
2022-01-23,SVN,EU,Slovenia,46.145528,14.974541,611697,6264,11292,594141,636,135,True,True,SI
2022-03-03,SLB,OC,Solomon Islands,-9.220083,161.244735,380545242,5152921,,,,,False,False,SB
2022-03-03,SOM,AF,Somalia,5.152149,46.199616,380545242,5152921,,,,,False,False,SO
2022-03-03,ZAF,AF,South Africa,-28.48322,24.676997,380545242,5152921,,,,,False,False,ZA
2022-02-27,KOR,AS,South Korea,35.901696,127.735889,371595423,5242872,0,366352551,0,0,False,False,KR
2022-03-03,SSD,AF,South Sudan,7.856272,30.040413,380545242,5152921,,,,,False,False,SS
2022-03-02,ESP,EU,Spain,39.896027,-2.487694,11054888,998668,,,6188,902,True,True,ES
2022-03-03,LKA,AS,Sri Lanka,7.874097,80.767098,380545242,5152921,,,,,False,False,LK
2022-03-03,SDN,AF,Sudan,15.45847,30.217636,380545242,5152921,,,,,False,False,SD
2022-03-03,SUR,SA,Suriname,3.917846,-56.032028,380545242,5152921,,,,,False,False,SR
2022-01-25,SWE,EU,Sweden,62.199806,17.637493,3946970,15768,,,,8527,True,True,SE
2022-03-03,CHE,EU,Switzerland,46.815514,8.224472,2821510,13189,341667,2466654,2292,191,False,False,CH
2022-03-03,SYR,AS,Syrian Arab Republic,34.814902,39.056126,380545242,5152921,,,,,False,False,SY
2022-02-27,TWN,AS,Taiwan,21.901806,121.471,371595423,5242872,0,366352551,0,0,False,False,TW
2022-03-03,TJK,AS,Tajikistan,38.858194,71.26218,380545242,5152921,,,,,False,False,TJ
2022-02-27,TZA,AF,Tanzania,-6.368216,34.885195,371595423,5242872,0,366352551,0,0,False,False,TZ
2022-03-03,THA,AS,Thailand,13.036597,101.492515,380545242,5152921,,,,,False,False,TH
2022-03-03,TGO,AF,Togo,8.621697,0.829685,380545242,5152921,,,,,False,False,TG
2022-03-03,TKL,OC,Tokelau,-8.967362,-171.855881,380545242,5152921,,,,,False,False,
2022-03-03,TON,OC,Tonga,-18.509023,-174.794922,380545242,5152921,,,,,False,False,
2022-03-03,TTO,NA,Trinidad and Tobago,10.687223,-61.220852,380545242,5152921,,,,,False,False,TT
2022-03-03,TUN,AF,Tunisia,33.892166,9.561556,380545242,5152921,,,,,False,False,TN
2022-03-03,TUR,AS,Turkey,38.961516,35.25175,380545242,5152921,,,,,False,True,TR
2022-03-03,TKM,AS,Turkmenistan,38.968319,59.562873,380545242,5152921,,,,,False,False,TM
2022-03-03,TCA,NA,Turks and Caicos Islands,21.692252,-71.803756,380545242,5152921,,,,,False,False,TC
2022-03-03,TUV,OC,Tuvalu,-8.221571,177.964073,380545242,5152921,,,,,False,False,TV
2022-03-03,UGA,AF,Uganda,1.365188,32.304651,380545242,5152921,,,,,False,False,UG
2021-11-18,UKR,EU,Ukraine,48.379888,31.168139,3284008,79506,2704217,500285,,,False,False,UA
2022-03-03,ARE,AS,United Arab Emirates,24.358745,53.982494,380545242,5152921,,,,,False,False,AE
2022-01-19,GBR,EU,United Kingdom,54.633221,-3.432277,16581351,152872,0,16428479,,,False,True,UK
2022-03-03,USA,NA,United States of America,36.966428,-95.844032,380545242,5152921,,,,,False,False,US
2022-03-03,VIR,NA,United States Virgin Islands,18.036736,-64.801704,380545242,5152921,,,,,False,False,VI
2022-03-03,URY,SA,Uruguay,-32.53152,-55.758328,380545242,5152921,,,,,False,False,UY
2022-03-03,UZB,AS,Uzbekistan,41.379722,64.564459,380545242,5152921,,,,,False,False,UZ
2022-03-03,VUT,OC,Vanuatu,-16.661195,168.214882,380545242,5152921,,,,,False,False,VU
2022-02-27,VEN,SA,Venezuela,6.414107,-66.578926,371595423,5242872,0,366352551,0,0,False,False,VE
2022-02-27,VNM,AS,Vietnam,15.974222,105.806431,371595423,5242872,0,366352551,0,0,False,False,VN
2022-02-27,ESH,AF,Western Sahara,24.221916,-12.886729,371595423,5242872,0,366352551,0,0,False,False,EH
2022-02-27,WWW,WW,Whole Globe,0,0,371595423,5242872,0,366352551,0,0,False,False,
2022-03-03,YEM,AS,Yemen,15.555545,48.531539,380545242,5152921,,,,,False,False,YE
2022-03-03,ZMB,AF,Zambia,-13.151917,27.852537,380545242,5152921,,,,,False,False,ZM
2022-03-03,ZWE,AF,Zimbabwe,-19.013286,29.146667,380545242,5152921,,,,,False,False,ZW
