Date,iso3,Continent,CountryName,lat,lon,CumulativePositive,CumulativeDeceased,CumulativeRecovered,CurrentlyPositive,Hospitalized,IntensiveCare,EUcountry,EUCPMcountry,NUTS
2022-02-23,AFG,AS,Afghanistan,33.930445,67.678945,372117535,5098369,,,,,False,False,AF
2022-02-22,ALB,EU,Albania,41.156986,20.181222,270734,3453,263518,3763,60,13,False,False,AL
2022-02-23,DZA,AF,Algeria,28.026875,1.65284,372117535,5098369,,,,,False,False,DZ
2022-02-23,ASM,OC,American Samoa,-12.716089,-170.253983,372117535,5098369,,,,,False,False,
2022-02-23,AND,EU,Andorra,42.542268,1.596865,37901,151,,,14,,False,False,AD
2022-02-23,AGO,AF,Angola,-11.209451,17.880669,372117535,5098369,,,,,False,False,AO
2022-02-23,AIA,NA,Anguilla,18.225119,-63.07213,372117535,5098369,,,,,False,False,AI
2022-02-23,ATG,NA,Antigua and Barbuda,17.363183,-61.789423,372117535,5098369,,,,,False,False,AG
2022-02-23,ARG,SA,Argentina,-38.421295,-63.587403,372117535,5098369,,,,,False,False,AR
2022-02-23,ARM,AS,Armenia,40.066181,45.111108,372117535,5098369,,,,,False,False,AM
2022-02-23,ABW,NA,Aruba,12.517713,-69.965112,372117535,5098369,,,,,False,False,AW
2022-02-23,AUS,OC,Australia,-26.853388,133.275154,372117535,5098369,,,,,False,False,AU
2022-02-22,AUT,EU,Austria,47.697542,13.349319,2567224,14096,2263369,289759,2181,197,True,True,AT
2022-02-23,AZE,AS,Azerbaijan,40.147396,47.572098,372117535,5098369,,,,,False,False,AZ
2022-02-23,BHS,NA,Bahamas,24.885993,-76.709892,372117535,5098369,,,,,False,False,BS
2022-02-23,BHR,AS,Bahrain,26.039722,50.559306,372117535,5098369,,,,,False,False,BH
2022-02-23,BGD,AS,Bangladesh,23.68764,90.351002,372117535,5098369,,,,,False,False,BD
2022-02-23,BRB,NA,Barbados,13.18355,-59.534649,372117535,5098369,,,,,False,False,BB
2022-02-23,BLR,EU,Belarus,53.711111,27.973847,896319,6407,,,,,False,False,BY
2022-02-23,BEL,EU,Belgium,50.499527,4.475402,3529041,30076,,,2725,290,True,True,BE
2022-02-23,BLZ,NA,Belize,17.192929,-88.5009,372117535,5098369,,,,,False,False,BZ
2022-02-23,BEN,AF,Benin,9.322048,2.313138,372117535,5098369,,,,,False,False,BJ
2022-02-23,BMU,NA,Bermuda,32.320236,-64.774022,372117535,5098369,,,,,False,False,BM
2022-02-23,BTN,AS,Bhutan,27.515709,90.442455,372117535,5098369,,,,,False,False,BT
2022-02-13,BOL,SA,Bolivia,-16.28835,-63.549429,350188342,5141981,0,345046361,0,0,False,False,BO
2022-02-13,BES,NA,"Bonaire, Saint Eustatius and Saba",12.160842,-68.304383,350188342,5141981,0,345046361,0,0,False,False,BQ
2022-01-05,BIH,EU,Bosnia and Herzegovina,43.892652,17.670584,295240,13547,,,,,False,False,BA
2022-02-23,BWA,AF,Botswana,-22.344029,24.680158,372117535,5098369,,,,,False,False,BW
2022-02-23,BRA,SA,Brazil,-14.242915,-53.189267,372117535,5098369,,,,,False,False,BR
2022-02-23,VGB,NA,British Virgin Islands,18.573601,-64.492065,372117535,5098369,,,,,False,False,VG
2022-02-13,BRN,AS,Brunei,4.525125,114.715443,350188342,5141981,0,345046361,0,0,False,False,BN
2021-09-23,BGR,EU,Bulgaria,42.729862,25.491667,487588,20251,426266,41071,,,True,True,BG
2022-02-23,BFA,AF,Burkina Faso,12.24185,-1.55676,372117535,5098369,,,,,False,False,BF
2022-02-23,BDI,AF,Burundi,-3.387918,29.920395,372117535,5098369,,,,,False,False,BI
2022-02-23,CPV,AF,Cabo Verde,16.0026,-24.014095,372117535,5098369,,,,,False,False,CV
2022-02-23,KHM,AS,Cambodia,12.54775,104.98386,372117535,5098369,,,,,False,False,KH
2022-02-23,CMR,AF,Cameroon,7.365302,12.343439,372117535,5098369,,,,,False,False,CM
2022-02-23,CAN,NA,Canada,62.393303,-96.818145,372117535,5098369,,,,,False,False,CA
2022-02-23,CYM,NA,Cayman Islands,19.512365,-80.580025,372117535,5098369,,,,,False,False,KY
2022-02-23,CAF,AF,Central African Republic,6.614041,20.941759,372117535,5098369,,,,,False,False,CF
2022-02-23,TCD,AF,Chad,15.445718,18.738068,372117535,5098369,,,,,False,False,TD
2022-02-23,CHL,SA,Chile,-36.711951,-73.601704,372117535,5098369,,,,,False,False,CL
2022-02-23,CHN,AS,China,34.668138,104.165802,372117535,5098369,,,,,False,False,CN
2022-02-23,COL,SA,Colombia,4.577317,-74.298973,372117535,5098369,,,,,False,False,CO
2022-02-23,COM,AF,Comoros,-11.875119,43.877007,372117535,5098369,,,,,False,False,KM
2022-02-13,COD,AF,"Congo, Democratic Republic of the",-4.034788,21.755028,350188342,5141981,0,345046361,0,0,False,False,CD
2022-02-13,COG,AF,"Congo, Rep. Of",-0.662071,14.927424,350188342,5141981,0,345046361,0,0,False,False,CG
2022-02-23,COK,OC,Cook Islands,-15.983639,-159.202896,372117535,5098369,,,,,False,False,
2022-02-23,CRI,NA,Costa Rica,9.624897,-84.253308,372117535,5098369,,,,,False,False,CR
2022-02-13,CIV,AF,Cote d'Ivoire,7.546855,-5.547099,350188342,5141981,0,345046361,0,0,False,False,CI
2022-02-23,HRV,EU,Croatia,44.48732,16.460306,372117535,5098369,,,,,True,True,HR
2022-02-23,CUB,NA,Cuba,21.527062,-79.544601,372117535,5098369,,,,,False,False,CU
2022-02-23,CUW,NA,Curaçao,12.209208,-68.945576,372117535,5098369,,,,,False,False,CW
2022-02-06,CYP,EU,Cyprus,35.167406,33.435499,282403,852,235162,46389,3282,,True,True,CY
2021-12-19,CZE,EU,Czech Republic,49.800901,15.478153,2406989,35288,2173844,197857,,,True,True,CZ
2021-11-30,DNK,EU,Denmark,56.155403,11.617223,483253,2883,0,480370,446,0,True,True,DK
2022-02-23,DJI,AF,Djibouti,11.808375,42.595222,372117535,5098369,,,,,False,False,DJ
2022-02-23,DMA,NA,Dominica,15.416749,-61.36413,372117535,5098369,,,,,False,False,DM
2022-02-23,DOM,NA,Dominican Republic,18.736509,-70.161744,372117535,5098369,,,,,False,False,DO
2022-02-13,TLS,OC,East Timor,-8.79973,125.677345,350188342,5141981,0,345046361,0,0,False,False,TL
2022-02-23,ECU,SA,Ecuador,-1.779901,-78.131592,372117535,5098369,,,,,False,False,EC
2022-02-23,EGY,AF,Egypt,26.696362,30.246486,372117535,5098369,,,,,False,False,EG
2022-02-23,SLV,NA,El Salvador,13.796873,-88.910412,372117535,5098369,,,,,False,False,SV
2022-02-23,GNQ,AF,Equatorial Guinea,1.633925,10.341295,372117535,5098369,,,,,False,False,GQ
2022-02-23,ERI,AF,Eritrea,15.18132,39.786709,372117535,5098369,,,,,False,False,ER
2022-02-24,EST,EU,Estonia,58.596209,25.023778,478941,,,,,,True,True,EE
2022-02-23,ETH,AF,Ethiopia,9.148086,40.493059,372117535,5098369,,,,,False,False,ET
2022-02-13,FRO,EU,Faeroe Islands,61.897846,-6.928791,350188342,5141981,0,345046361,0,0,False,False,
2022-02-23,FLK,SA,Falkland Islands (Malvinas),-51.800581,-59.528839,372117535,5098369,,,,,False,False,FK
2022-02-23,FJI,OC,Fiji,-16.578041,178.416339,372117535,5098369,,,,,False,False,FJ
2022-02-24,FIN,EU,Finland,64.952416,26.068944,637660,846,0,636814,,,True,True,FI
2022-02-23,FRA,EU,France,46.232193,2.209667,372117535,5098369,,,,,True,True,FR
2022-02-23,GUF,SA,French Guiana,3.951795,-53.07823,372117535,5098369,,,,,False,False,
2022-02-23,PYF,OC,French Polynesia,-17.778572,-143.903496,372117535,5098369,,,,,False,False,PF
2022-02-23,GAB,AF,Gabon,-0.828097,11.598909,372117535,5098369,,,,,False,False,GA
2022-02-23,GMB,AF,Gambia,13.445411,-15.311436,372117535,5098369,,,,,False,False,GM
2022-02-23,GEO,AS,Georgia,42.319847,43.368055,372117535,5098369,,,,,False,False,GE
2022-02-24,DEU,EU,Germany,51.165706,10.452764,14188271,122145,10435800,3630326,,,True,True,DE
2022-02-23,GHA,AF,Ghana,7.955012,-1.03182,372117535,5098369,,,,,False,False,GH
2022-02-23,GIB,EU,Gibraltar,36.132235,-5.352273,372117535,5098369,,,,,False,False,GI
2022-02-23,GRC,EU,Greece,38.275283,23.810343,372117535,5098369,,,,,True,True,EL
2022-02-23,GRL,NA,Greenland,71.702379,-42.177174,372117535,5098369,,,,,False,False,
2022-02-23,GRD,NA,Grenada,12.152588,-61.689557,372117535,5098369,,,,,False,False,GD
2022-02-23,GLP,NA,Guadeloupe,16.192207,-61.272382,372117535,5098369,,,,,False,False,
2022-02-23,GUM,OC,Guam,13.446472,144.786613,372117535,5098369,,,,,False,False,GU
2022-02-23,GTM,NA,Guatemala,15.776261,-90.229744,372117535,5098369,,,,,False,False,GT
2022-02-23,GGY,EU,Guernsey,49.575693,-2.42318,372117535,5098369,,,,,False,False,GG
2022-02-23,GIN,AF,Guinea,9.934887,-11.283845,372117535,5098369,,,,,False,False,GN
2022-02-13,GNB,AF,Guinea Bissau,11.802527,-15.177029,350188342,5141981,0,345046361,0,0,False,False,GW
2022-02-23,GUY,SA,Guyana,4.866324,-58.932507,372117535,5098369,,,,,False,False,GY
2022-02-23,HTI,NA,Haiti,19.054426,-73.045971,372117535,5098369,,,,,False,False,HT
2022-02-23,VAT,EU,Holy See,41.903859,12.452041,372117535,5098369,,,,,False,False,
2022-02-23,HND,NA,Honduras,14.746333,-86.253097,372117535,5098369,,,,,False,False,HN
2022-02-03,HUN,EU,Hungary,47.164638,19.508944,1600411,413636,1330876,-144101,4451,163,True,True,HU
2022-02-23,ISL,EU,Iceland,64.963942,-19.021169,372117535,5098369,,,,,False,True,IS
2022-02-23,IND,AS,India,21.125681,82.794998,372117535,5098369,,,,,False,False,IN
2022-02-23,IDN,AS,Indonesia,-2.518722,118.015568,372117535,5098369,,,,,False,False,ID
2022-02-13,IRN,AS,Iran,32.420653,53.682375,350188342,5141981,0,345046361,0,0,False,False,IR
2022-02-23,IRQ,AS,Iraq,33.223737,43.685901,372117535,5098369,,,,,False,False,IQ
2022-02-23,IRL,EU,Ireland,53.41975,-8.240472,1284179,6460,,,28588,2496,True,True,IE
2022-02-23,IMN,EU,Isle of Man,54.23782,-4.555111,372117535,5098369,,,,,False,False,IM
2022-02-23,ISR,AS,Israel,31.418388,35.073541,372117535,5098369,,,,,False,False,IL
2022-02-23,ITA,EU,Italy,41.873987,12.564167,12603758,153764,11228571,1221423,13413,886,True,True,IT
2022-02-23,JAM,NA,Jamaica,18.115265,-77.27348,372117535,5098369,,,,,False,False,JM
2022-02-23,JPN,AS,Japan,34.886306,134.379711,372117535,5098369,,,,,False,False,JP
2022-02-23,JEY,EU,Jersey,49.217445,-2.141056,372117535,5098369,,,,,False,False,JE
2022-02-23,JOR,AS,Jordan,31.276778,37.130583,372117535,5098369,,,,,False,False,JO
2022-02-23,KAZ,AS,Kazakhstan,48.193764,66.902264,372117535,5098369,,,,,False,False,KZ
2022-02-23,KEN,AF,Kenya,0.170945,37.903969,372117535,5098369,,,,,False,False,KE
2022-02-23,KIR,OC,Kiribati,-3.358734,9.670395,372117535,5098369,,,,,False,False,
2022-02-13,XKX,EU,Kosovo,41.85637,21.803351,350188342,5141981,0,345046361,0,0,False,False,XK
2022-02-23,KWT,AS,Kuwait,29.310278,47.493515,372117535,5098369,,,,,False,False,KW
2022-02-23,KGZ,AS,Kyrgyzstan,41.205528,74.779888,372117535,5098369,,,,,False,False,KG
2022-02-13,LAO,AS,Laos,18.205208,103.895043,350188342,5141981,0,345046361,0,0,False,False,LA
2022-02-24,LVA,EU,Latvia,56.875584,24.607722,624008,5159,,,,,True,True,LV
2022-02-23,LBN,AS,Lebanon,33.872639,35.876736,372117535,5098369,,,,,False,False,LB
2022-02-23,LSO,AF,Lesotho,-29.620511,28.247414,372117535,5098369,,,,,False,False,LS
2022-02-23,LBR,AF,Liberia,6.452424,-9.428598,372117535,5098369,,,,,False,False,LR
2022-02-23,LBY,AF,Libya,26.338522,17.268816,372117535,5098369,,,,,False,False,LY
2022-02-23,LIE,EU,Liechtenstein,47.164696,9.555,372117535,5098369,,,,,False,False,LI
2022-02-23,LTU,EU,Lithuania,55.174112,23.906736,885863,8336,788567,88960,,,True,True,LT
2022-02-22,LUX,EU,Luxembourg,49.815764,6.131514,180376,988,,,,,True,True,LU
2022-02-23,MDG,AF,Madagascar,-18.777192,46.854328,372117535,5098369,,,,,False,False,MG
2022-02-23,MWI,AF,Malawi,-13.24627,34.295385,372117535,5098369,,,,,False,False,MW
2022-02-23,MYS,AS,Malaysia,4.109319,109.455475,372117535,5098369,,,,,False,False,MY
2022-02-23,MDV,AS,Maldives,3.202833,73.165249,372117535,5098369,,,,,False,False,MV
2022-02-23,MLI,AF,Mali,17.579757,-3.998823,372117535,5098369,,,,,False,False,ML
2022-02-23,MLT,EU,Malta,35.946151,14.384612,70905,601,69164,1140,,,True,True,MT
2022-02-23,MHL,OC,Marshall Islands,10.10382,168.728363,372117535,5098369,,,,,False,False,
2022-02-23,MTQ,NA,Martinique,14.635541,-61.022814,372117535,5098369,,,,,False,False,
2022-02-23,MRT,AF,Mauritania,21.00681,-10.947098,372117535,5098369,,,,,False,False,MR
2022-02-23,MUS,AF,Mauritius,-15.422486,60.006449,372117535,5098369,,,,,False,False,MU
2022-02-23,MYT,AF,Mayotte,-12.824511,45.165455,372117535,5098369,,,,,False,False,
2022-02-23,MEX,NA,Mexico,23.624813,-102.57867,372117535,5098369,,,,,False,False,MX
2022-02-22,MDA,EU,Moldova,46.979527,28.377195,497946,11157,470851,15938,,,False,False,MD
2022-02-23,MCO,EU,Monaco,43.738348,7.424451,372117535,5098369,,,,,False,False,MC
2022-02-23,MNG,AS,Mongolia,46.860945,103.836986,372117535,5098369,,,,,False,False,MN
2022-02-23,MNE,EU,Montenegro,42.710152,19.410069,229430,2670,,,0,,False,True,ME
2022-02-23,MSR,NA,Montserrat,16.749415,-62.192741,372117535,5098369,,,,,False,False,MS
2022-02-23,MAR,AF,Morocco,31.792306,-7.080168,372117535,5098369,,,,,False,False,MA
2022-02-23,MOZ,AF,Mozambique,-18.670284,35.530157,372117535,5098369,,,,,False,False,MZ
2022-02-13,MMR,AS,"Myanmar, Union of",19.163916,96.68303,350188342,5141981,0,345046361,0,0,False,False,MM
2022-02-23,NAM,AF,Namibia,-22.965662,18.486165,372117535,5098369,,,,,False,False,NA
2022-02-23,NRU,OC,Nauru,-0.52832,166.922157,372117535,5098369,,,,,False,False,NR
2022-02-23,NPL,AS,Nepal,28.395056,84.127803,372117535,5098369,,,,,False,False,NP
2022-02-23,NLD,EU,Netherlands,52.133057,5.29525,6193760,27656,0,6166104,3581537,0,True,True,NL
2022-02-23,NCL,OC,New Caledonia,-21.123889,165.846901,372117535,5098369,,,,,False,False,NC
2022-02-23,NZL,OC,New Zealand,-40.9006,174.886,372117535,5098369,,,,,False,False,NZ
2022-02-23,NIC,NA,Nicaragua,12.866726,-85.214298,372117535,5098369,,,,,False,False,NI
2022-02-23,NER,AF,Niger,17.611,8.080946,372117535,5098369,,,,,False,False,NE
2022-02-23,NGA,AF,Nigeria,9.084575,8.674252,372117535,5098369,,,,,False,False,NG
2022-02-23,NIU,OC,Niue,-19.051631,-169.86309,372117535,5098369,,,,,False,False,
2022-02-23,MKD,EU,North Macedonia,41.611,21.751417,372117535,5098369,,,,,False,True,MK
2022-02-13,MNP,OC,Northern Mariana Islands,17.331835,145.47577,350188342,5141981,0,345046361,0,0,False,False,MP
2022-02-23,NOR,EU,Norway,64.583013,17.86411,1151185,1598,0,1149587,8993,1651,False,True,NO
2022-02-23,OMN,AS,Oman,21.516861,55.859291,372117535,5098369,,,,,False,False,OM
2022-02-23,PAK,AS,Pakistan,30.441861,69.359766,372117535,5098369,,,,,False,False,PK
2022-02-23,PLW,OC,Palau,5.63663,132.920475,372117535,5098369,,,,,False,False,PW
2022-02-13,PSE,AS,Palestine,31.881464,34.894978,350188342,5141981,0,345046361,0,0,False,False,PS
2022-02-23,PAN,NA,Panama,8.41771,-80.112777,372117535,5098369,,,,,False,False,PA
2022-02-23,PNG,OC,Papua New Guinea,-6.48825,148.403152,372117535,5098369,,,,,False,False,PG
2022-02-23,PRY,SA,Paraguay,-23.451389,-58.453215,372117535,5098369,,,,,False,False,PY
2022-02-23,PER,SA,Peru,-9.181352,-75.002365,372117535,5098369,,,,,False,False,PE
2022-02-23,PHL,AS,Philippines,12.881958,121.76654,372117535,5098369,,,,,False,False,PH
2022-02-24,POL,EU,Poland,51.92275,19.136875,5573018,110858,5003336,458824,,,True,True,PL
2022-02-23,PRT,EU,Portugal,39.553444,-7.839319,372117535,5098369,,,,,True,True,PT
2022-02-23,PRI,NA,Puerto Rico,18.223285,-66.592731,372117535,5098369,,,,,False,False,PR
2022-02-23,QAT,AS,Qatar,25.318833,51.19693,372117535,5098369,,,,,False,False,QA
2022-02-23,REU,AF,Réunion,-21.114533,55.532062,372117535,5098369,,,,,False,False,
2022-02-23,ROU,EU,Romania,45.947125,24.980514,2686951,62958,,,,,True,True,RO
2021-10-15,RUS,EU,Russian Fed.,61.523111,-74.9,7925176,223429,6960024,741723,0,0,False,False,RU
2022-02-23,RWA,AF,Rwanda,-1.94708,29.876376,372117535,5098369,,,,,False,False,RW
2022-02-23,SHN,AF,Saint Helena,-11.953679,-10.029991,372117535,5098369,,,,,False,False,
2022-02-23,KNA,NA,Saint Kitts and Nevis,17.257731,-62.706413,372117535,5098369,,,,,False,False,KN
2022-02-23,LCA,NA,Saint Lucia,13.904011,-60.974176,372117535,5098369,,,,,False,False,LC
2022-02-23,SPM,NA,Saint Pierre and Miquelon,46.966164,-56.336825,372117535,5098369,,,,,False,False,
2022-02-23,VCT,NA,Saint Vincent and the Grenadines,12.980909,-61.287392,372117535,5098369,,,,,False,False,VC
2022-02-13,BLM,NA,Saint-Barthélemy,17.903496,-62.831448,350188342,5141981,0,345046361,0,0,False,False,BL
2022-02-23,WSM,OC,Samoa,-13.736573,-172.10717,372117535,5098369,,,,,False,False,
2022-02-23,SMR,EU,San Marino,43.942973,12.460035,372117535,5098369,,,,,False,False,SM
2022-02-23,STP,AF,Sao Tome and Principe,0.863044,6.968272,372117535,5098369,,,,,False,False,ST
2022-02-23,SAU,AS,Saudi Arabia,23.886291,45.081139,372117535,5098369,,,,,False,False,SA
2022-02-23,SEN,AF,Senegal,14.499454,-14.445562,372117535,5098369,,,,,False,False,SN
2022-02-23,SRB,EU,Serbia,44.206802,20.911009,372117535,5098369,,,,,False,True,RS
2022-02-23,SYC,AF,Seychelles,-7.018792,51.242138,372117535,5098369,,,,,False,False,SC
2022-02-23,SLE,AF,Sierra Leone,8.464806,-11.795935,372117535,5098369,,,,,False,False,SL
2022-02-23,SGP,AS,Singapore,1.364917,103.822872,372117535,5098369,,,,,False,False,SG
2022-02-13,SXM,NA,Sint Maarten (Dutch part),18.04097,-63.078516,350188342,5141981,0,345046361,0,0,False,False,SX
2022-02-09,SVK,EU,Slovakia,48.665639,19.709097,1146260,17995,,,2178,297,True,True,SK
2022-01-23,SVN,EU,Slovenia,46.145528,14.974541,611697,6264,11292,594141,636,135,True,True,SI
2022-02-23,SLB,OC,Solomon Islands,-9.220083,161.244735,372117535,5098369,,,,,False,False,SB
2022-02-23,SOM,AF,Somalia,5.152149,46.199616,372117535,5098369,,,,,False,False,SO
2022-02-23,ZAF,AF,South Africa,-28.48322,24.676997,372117535,5098369,,,,,False,False,ZA
2022-02-13,KOR,AS,South Korea,35.901696,127.735889,350188342,5141981,0,345046361,0,0,False,False,KR
2022-02-23,SSD,AF,South Sudan,7.856272,30.040413,372117535,5098369,,,,,False,False,SS
2022-02-21,ESP,EU,Spain,39.896027,-2.487694,10858000,2046727,,,9364,1224,True,True,ES
2022-02-23,LKA,AS,Sri Lanka,7.874097,80.767098,372117535,5098369,,,,,False,False,LK
2022-02-23,SDN,AF,Sudan,15.45847,30.217636,372117535,5098369,,,,,False,False,SD
2022-02-23,SUR,SA,Suriname,3.917846,-56.032028,372117535,5098369,,,,,False,False,SR
2022-01-25,SWE,EU,Sweden,62.199806,17.637493,3946970,15768,,,,8527,True,True,SE
2022-02-24,CHE,EU,Switzerland,46.815514,8.224472,2695074,13118,321008,2360948,2409,192,False,False,CH
2022-02-23,SYR,AS,Syrian Arab Republic,34.814902,39.056126,372117535,5098369,,,,,False,False,SY
2022-02-13,TWN,AS,Taiwan,21.901806,121.471,350188342,5141981,0,345046361,0,0,False,False,TW
2022-02-23,TJK,AS,Tajikistan,38.858194,71.26218,372117535,5098369,,,,,False,False,TJ
2022-02-13,TZA,AF,Tanzania,-6.368216,34.885195,350188342,5141981,0,345046361,0,0,False,False,TZ
2022-02-23,THA,AS,Thailand,13.036597,101.492515,372117535,5098369,,,,,False,False,TH
2022-02-23,TGO,AF,Togo,8.621697,0.829685,372117535,5098369,,,,,False,False,TG
2022-02-23,TKL,OC,Tokelau,-8.967362,-171.855881,372117535,5098369,,,,,False,False,
2022-02-23,TON,OC,Tonga,-18.509023,-174.794922,372117535,5098369,,,,,False,False,
2022-02-23,TTO,NA,Trinidad and Tobago,10.687223,-61.220852,372117535,5098369,,,,,False,False,TT
2022-02-23,TUN,AF,Tunisia,33.892166,9.561556,372117535,5098369,,,,,False,False,TN
2022-02-23,TUR,AS,Turkey,38.961516,35.25175,372117535,5098369,,,,,False,True,TR
2022-02-23,TKM,AS,Turkmenistan,38.968319,59.562873,372117535,5098369,,,,,False,False,TM
2022-02-23,TCA,NA,Turks and Caicos Islands,21.692252,-71.803756,372117535,5098369,,,,,False,False,TC
2022-02-23,TUV,OC,Tuvalu,-8.221571,177.964073,372117535,5098369,,,,,False,False,TV
2022-02-23,UGA,AF,Uganda,1.365188,32.304651,372117535,5098369,,,,,False,False,UG
2021-11-18,UKR,EU,Ukraine,48.379888,31.168139,3284008,79506,2704217,500285,,,False,False,UA
2022-02-23,ARE,AS,United Arab Emirates,24.358745,53.982494,372117535,5098369,,,,,False,False,AE
2022-01-19,GBR,EU,United Kingdom,54.633221,-3.432277,16581351,152872,0,16428479,,,False,True,UK
2022-02-23,USA,NA,United States of America,36.966428,-95.844032,372117535,5098369,,,,,False,False,US
2022-02-23,VIR,NA,United States Virgin Islands,18.036736,-64.801704,372117535,5098369,,,,,False,False,VI
2022-02-23,URY,SA,Uruguay,-32.53152,-55.758328,372117535,5098369,,,,,False,False,UY
2022-02-23,UZB,AS,Uzbekistan,41.379722,64.564459,372117535,5098369,,,,,False,False,UZ
2022-02-23,VUT,OC,Vanuatu,-16.661195,168.214882,372117535,5098369,,,,,False,False,VU
2022-02-13,VEN,SA,Venezuela,6.414107,-66.578926,350188342,5141981,0,345046361,0,0,False,False,VE
2022-02-13,VNM,AS,Vietnam,15.974222,105.806431,350188342,5141981,0,345046361,0,0,False,False,VN
2022-02-13,ESH,AF,Western Sahara,24.221916,-12.886729,350188342,5141981,0,345046361,0,0,False,False,EH
2022-02-13,WWW,WW,Whole Globe,0,0,350188342,5141981,0,345046361,0,0,False,False,
2022-02-23,YEM,AS,Yemen,15.555545,48.531539,372117535,5098369,,,,,False,False,YE
2022-02-23,ZMB,AF,Zambia,-13.151917,27.852537,372117535,5098369,,,,,False,False,ZM
2022-02-23,ZWE,AF,Zimbabwe,-19.013286,29.146667,372117535,5098369,,,,,False,False,ZW
