Date,iso3,Continent,CountryName,lat,lon,CumulativePositive,CumulativeDeceased,CumulativeRecovered,CurrentlyPositive,Hospitalized,IntensiveCare,EUcountry,EUCPMcountry,NUTS
2022-02-20,AFG,AS,Afghanistan,33.930445,67.678945,366184466,5062174,,,,,False,False,AF
2022-02-20,ALB,EU,Albania,41.156986,20.181222,270370,3445,262402,4523,67,12,False,False,AL
2022-02-20,DZA,AF,Algeria,28.026875,1.65284,366184466,5062174,,,,,False,False,DZ
2022-02-20,ASM,OC,American Samoa,-12.716089,-170.253983,366184466,5062174,,,,,False,False,
2022-02-18,AND,EU,Andorra,42.542268,1.596865,37589,150,,,10,,False,False,AD
2022-02-20,AGO,AF,Angola,-11.209451,17.880669,366184466,5062174,,,,,False,False,AO
2022-02-20,AIA,NA,Anguilla,18.225119,-63.07213,366184466,5062174,,,,,False,False,AI
2022-02-20,ATG,NA,Antigua and Barbuda,17.363183,-61.789423,366184466,5062174,,,,,False,False,AG
2022-02-20,ARG,SA,Argentina,-38.421295,-63.587403,366184466,5062174,,,,,False,False,AR
2022-02-20,ARM,AS,Armenia,40.066181,45.111108,366184466,5062174,,,,,False,False,AM
2022-02-20,ABW,NA,Aruba,12.517713,-69.965112,366184466,5062174,,,,,False,False,AW
2022-02-20,AUS,OC,Australia,-26.853388,133.275154,366184466,5062174,,,,,False,False,AU
2022-02-20,AUT,EU,Austria,47.697542,13.349319,2510071,14037,2202364,293670,2062,188,True,True,AT
2022-02-20,AZE,AS,Azerbaijan,40.147396,47.572098,366184466,5062174,,,,,False,False,AZ
2022-02-20,BHS,NA,Bahamas,24.885993,-76.709892,366184466,5062174,,,,,False,False,BS
2022-02-20,BHR,AS,Bahrain,26.039722,50.559306,366184466,5062174,,,,,False,False,BH
2022-02-20,BGD,AS,Bangladesh,23.68764,90.351002,366184466,5062174,,,,,False,False,BD
2022-02-20,BRB,NA,Barbados,13.18355,-59.534649,366184466,5062174,,,,,False,False,BB
2022-02-21,BLR,EU,Belarus,53.711111,27.973847,887582,6375,,,,,False,False,BY
2022-02-18,BEL,EU,Belgium,50.499527,4.475402,3494223,29920,,,3135,338,True,True,BE
2022-02-20,BLZ,NA,Belize,17.192929,-88.5009,366184466,5062174,,,,,False,False,BZ
2022-02-20,BEN,AF,Benin,9.322048,2.313138,366184466,5062174,,,,,False,False,BJ
2022-02-20,BMU,NA,Bermuda,32.320236,-64.774022,366184466,5062174,,,,,False,False,BM
2022-02-20,BTN,AS,Bhutan,27.515709,90.442455,366184466,5062174,,,,,False,False,BT
2022-02-13,BOL,SA,Bolivia,-16.28835,-63.549429,350188342,5141981,0,345046361,0,0,False,False,BO
2022-02-13,BES,NA,"Bonaire, Saint Eustatius and Saba",12.160842,-68.304383,350188342,5141981,0,345046361,0,0,False,False,BQ
2022-01-05,BIH,EU,Bosnia and Herzegovina,43.892652,17.670584,295240,13547,,,,,False,False,BA
2022-02-20,BWA,AF,Botswana,-22.344029,24.680158,366184466,5062174,,,,,False,False,BW
2022-02-20,BRA,SA,Brazil,-14.242915,-53.189267,366184466,5062174,,,,,False,False,BR
2022-02-20,VGB,NA,British Virgin Islands,18.573601,-64.492065,366184466,5062174,,,,,False,False,VG
2022-02-13,BRN,AS,Brunei,4.525125,114.715443,350188342,5141981,0,345046361,0,0,False,False,BN
2021-09-23,BGR,EU,Bulgaria,42.729862,25.491667,487588,20251,426266,41071,,,True,True,BG
2022-02-20,BFA,AF,Burkina Faso,12.24185,-1.55676,366184466,5062174,,,,,False,False,BF
2022-02-20,BDI,AF,Burundi,-3.387918,29.920395,366184466,5062174,,,,,False,False,BI
2022-02-20,CPV,AF,Cabo Verde,16.0026,-24.014095,366184466,5062174,,,,,False,False,CV
2022-02-20,KHM,AS,Cambodia,12.54775,104.98386,366184466,5062174,,,,,False,False,KH
2022-02-20,CMR,AF,Cameroon,7.365302,12.343439,366184466,5062174,,,,,False,False,CM
2022-02-20,CAN,NA,Canada,62.393303,-96.818145,366184466,5062174,,,,,False,False,CA
2022-02-20,CYM,NA,Cayman Islands,19.512365,-80.580025,366184466,5062174,,,,,False,False,KY
2022-02-20,CAF,AF,Central African Republic,6.614041,20.941759,366184466,5062174,,,,,False,False,CF
2022-02-20,TCD,AF,Chad,15.445718,18.738068,366184466,5062174,,,,,False,False,TD
2022-02-20,CHL,SA,Chile,-36.711951,-73.601704,366184466,5062174,,,,,False,False,CL
2022-02-20,CHN,AS,China,34.668138,104.165802,366184466,5062174,,,,,False,False,CN
2022-02-20,COL,SA,Colombia,4.577317,-74.298973,366184466,5062174,,,,,False,False,CO
2022-02-20,COM,AF,Comoros,-11.875119,43.877007,366184466,5062174,,,,,False,False,KM
2022-02-13,COD,AF,"Congo, Democratic Republic of the",-4.034788,21.755028,350188342,5141981,0,345046361,0,0,False,False,CD
2022-02-13,COG,AF,"Congo, Rep. Of",-0.662071,14.927424,350188342,5141981,0,345046361,0,0,False,False,CG
2022-02-20,COK,OC,Cook Islands,-15.983639,-159.202896,366184466,5062174,,,,,False,False,
2022-02-20,CRI,NA,Costa Rica,9.624897,-84.253308,366184466,5062174,,,,,False,False,CR
2022-02-13,CIV,AF,Cote d'Ivoire,7.546855,-5.547099,350188342,5141981,0,345046361,0,0,False,False,CI
2022-02-20,HRV,EU,Croatia,44.48732,16.460306,366184466,5062174,,,,,True,True,HR
2022-02-20,CUB,NA,Cuba,21.527062,-79.544601,366184466,5062174,,,,,False,False,CU
2022-02-20,CUW,NA,Curaçao,12.209208,-68.945576,366184466,5062174,,,,,False,False,CW
2022-02-06,CYP,EU,Cyprus,35.167406,33.435499,282403,852,235162,46389,3282,,True,True,CY
2021-12-19,CZE,EU,Czech Republic,49.800901,15.478153,2406989,35288,2173844,197857,,,True,True,CZ
2021-11-30,DNK,EU,Denmark,56.155403,11.617223,483253,2883,0,480370,446,0,True,True,DK
2022-02-20,DJI,AF,Djibouti,11.808375,42.595222,366184466,5062174,,,,,False,False,DJ
2022-02-20,DMA,NA,Dominica,15.416749,-61.36413,366184466,5062174,,,,,False,False,DM
2022-02-20,DOM,NA,Dominican Republic,18.736509,-70.161744,366184466,5062174,,,,,False,False,DO
2022-02-13,TLS,OC,East Timor,-8.79973,125.677345,350188342,5141981,0,345046361,0,0,False,False,TL
2022-02-20,ECU,SA,Ecuador,-1.779901,-78.131592,366184466,5062174,,,,,False,False,EC
2022-02-20,EGY,AF,Egypt,26.696362,30.246486,366184466,5062174,,,,,False,False,EG
2022-02-20,SLV,NA,El Salvador,13.796873,-88.910412,366184466,5062174,,,,,False,False,SV
2022-02-20,GNQ,AF,Equatorial Guinea,1.633925,10.341295,366184466,5062174,,,,,False,False,GQ
2022-02-20,ERI,AF,Eritrea,15.18132,39.786709,366184466,5062174,,,,,False,False,ER
2022-02-21,EST,EU,Estonia,58.596209,25.023778,462728,,,,,,True,True,EE
2022-02-20,ETH,AF,Ethiopia,9.148086,40.493059,366184466,5062174,,,,,False,False,ET
2022-02-13,FRO,EU,Faeroe Islands,61.897846,-6.928791,350188342,5141981,0,345046361,0,0,False,False,
2022-02-20,FLK,SA,Falkland Islands (Malvinas),-51.800581,-59.528839,366184466,5062174,,,,,False,False,FK
2022-02-20,FJI,OC,Fiji,-16.578041,178.416339,366184466,5062174,,,,,False,False,FJ
2022-02-21,FIN,EU,Finland,64.952416,26.068944,622719,846,0,621873,,,True,True,FI
2022-02-20,FRA,EU,France,46.232193,2.209667,366184466,5062174,,,,,True,True,FR
2022-02-20,GUF,SA,French Guiana,3.951795,-53.07823,366184466,5062174,,,,,False,False,
2022-02-20,PYF,OC,French Polynesia,-17.778572,-143.903496,366184466,5062174,,,,,False,False,PF
2022-02-20,GAB,AF,Gabon,-0.828097,11.598909,366184466,5062174,,,,,False,False,GA
2022-02-20,GMB,AF,Gambia,13.445411,-15.311436,366184466,5062174,,,,,False,False,GM
2022-02-20,GEO,AS,Georgia,42.319847,43.368055,366184466,5062174,,,,,False,False,GE
2022-02-21,DEU,EU,Germany,51.165706,10.452764,13636995,121297,9829300,3686398,,,True,True,DE
2022-02-20,GHA,AF,Ghana,7.955012,-1.03182,366184466,5062174,,,,,False,False,GH
2022-02-20,GIB,EU,Gibraltar,36.132235,-5.352273,366184466,5062174,,,,,False,False,GI
2022-02-20,GRC,EU,Greece,38.275283,23.810343,366184466,5062174,,,,,True,True,EL
2022-02-20,GRL,NA,Greenland,71.702379,-42.177174,366184466,5062174,,,,,False,False,
2022-02-20,GRD,NA,Grenada,12.152588,-61.689557,366184466,5062174,,,,,False,False,GD
2022-02-20,GLP,NA,Guadeloupe,16.192207,-61.272382,366184466,5062174,,,,,False,False,
2022-02-20,GUM,OC,Guam,13.446472,144.786613,366184466,5062174,,,,,False,False,GU
2022-02-20,GTM,NA,Guatemala,15.776261,-90.229744,366184466,5062174,,,,,False,False,GT
2022-02-20,GGY,EU,Guernsey,49.575693,-2.42318,366184466,5062174,,,,,False,False,GG
2022-02-20,GIN,AF,Guinea,9.934887,-11.283845,366184466,5062174,,,,,False,False,GN
2022-02-13,GNB,AF,Guinea Bissau,11.802527,-15.177029,350188342,5141981,0,345046361,0,0,False,False,GW
2022-02-20,GUY,SA,Guyana,4.866324,-58.932507,366184466,5062174,,,,,False,False,GY
2022-02-20,HTI,NA,Haiti,19.054426,-73.045971,366184466,5062174,,,,,False,False,HT
2022-02-20,VAT,EU,Holy See,41.903859,12.452041,366184466,5062174,,,,,False,False,
2022-02-20,HND,NA,Honduras,14.746333,-86.253097,366184466,5062174,,,,,False,False,HN
2022-02-03,HUN,EU,Hungary,47.164638,19.508944,1600411,413636,1330876,-144101,4451,163,True,True,HU
2022-02-20,ISL,EU,Iceland,64.963942,-19.021169,366184466,5062174,,,,,False,True,IS
2022-02-20,IND,AS,India,21.125681,82.794998,366184466,5062174,,,,,False,False,IN
2022-02-20,IDN,AS,Indonesia,-2.518722,118.015568,366184466,5062174,,,,,False,False,ID
2022-02-13,IRN,AS,Iran,32.420653,53.682375,350188342,5141981,0,345046361,0,0,False,False,IR
2022-02-20,IRQ,AS,Iraq,33.223737,43.685901,366184466,5062174,,,,,False,False,IQ
2022-02-21,IRL,EU,Ireland,53.41975,-8.240472,1276778,6443,,,28326,2492,True,True,IE
2022-02-20,IMN,EU,Isle of Man,54.23782,-4.555111,366184466,5062174,,,,,False,False,IM
2022-02-20,ISR,AS,Israel,31.418388,35.073541,366184466,5062174,,,,,False,False,IL
2022-02-21,ITA,EU,Italy,41.873987,12.564167,12494459,153190,11019298,1321971,14303,928,True,True,IT
2022-02-20,JAM,NA,Jamaica,18.115265,-77.27348,366184466,5062174,,,,,False,False,JM
2022-02-20,JPN,AS,Japan,34.886306,134.379711,366184466,5062174,,,,,False,False,JP
2022-02-20,JEY,EU,Jersey,49.217445,-2.141056,366184466,5062174,,,,,False,False,JE
2022-02-20,JOR,AS,Jordan,31.276778,37.130583,366184466,5062174,,,,,False,False,JO
2022-02-20,KAZ,AS,Kazakhstan,48.193764,66.902264,366184466,5062174,,,,,False,False,KZ
2022-02-20,KEN,AF,Kenya,0.170945,37.903969,366184466,5062174,,,,,False,False,KE
2022-02-20,KIR,OC,Kiribati,-3.358734,9.670395,366184466,5062174,,,,,False,False,
2022-02-13,XKX,EU,Kosovo,41.85637,21.803351,350188342,5141981,0,345046361,0,0,False,False,XK
2022-02-20,KWT,AS,Kuwait,29.310278,47.493515,366184466,5062174,,,,,False,False,KW
2022-02-20,KGZ,AS,Kyrgyzstan,41.205528,74.779888,366184466,5062174,,,,,False,False,KG
2022-02-13,LAO,AS,Laos,18.205208,103.895043,350188342,5141981,0,345046361,0,0,False,False,LA
2022-02-21,LVA,EU,Latvia,56.875584,24.607722,589763,5113,,,,,True,True,LV
2022-02-20,LBN,AS,Lebanon,33.872639,35.876736,366184466,5062174,,,,,False,False,LB
2022-02-20,LSO,AF,Lesotho,-29.620511,28.247414,366184466,5062174,,,,,False,False,LS
2022-02-20,LBR,AF,Liberia,6.452424,-9.428598,366184466,5062174,,,,,False,False,LR
2022-02-20,LBY,AF,Libya,26.338522,17.268816,366184466,5062174,,,,,False,False,LY
2022-02-20,LIE,EU,Liechtenstein,47.164696,9.555,366184466,5062174,,,,,False,False,LI
2022-02-20,LTU,EU,Lithuania,55.174112,23.906736,865559,8267,762668,94624,,,True,True,LT
2022-02-20,LUX,EU,Luxembourg,49.815764,6.131514,178507,985,,,,,True,True,LU
2022-02-20,MDG,AF,Madagascar,-18.777192,46.854328,366184466,5062174,,,,,False,False,MG
2022-02-20,MWI,AF,Malawi,-13.24627,34.295385,366184466,5062174,,,,,False,False,MW
2022-02-20,MYS,AS,Malaysia,4.109319,109.455475,366184466,5062174,,,,,False,False,MY
2022-02-20,MDV,AS,Maldives,3.202833,73.165249,366184466,5062174,,,,,False,False,MV
2022-02-20,MLI,AF,Mali,17.579757,-3.998823,366184466,5062174,,,,,False,False,ML
2022-02-21,MLT,EU,Malta,35.946151,14.384612,70736,598,68977,1161,,,True,True,MT
2022-02-20,MHL,OC,Marshall Islands,10.10382,168.728363,366184466,5062174,,,,,False,False,
2022-02-20,MTQ,NA,Martinique,14.635541,-61.022814,366184466,5062174,,,,,False,False,
2022-02-20,MRT,AF,Mauritania,21.00681,-10.947098,366184466,5062174,,,,,False,False,MR
2022-02-20,MUS,AF,Mauritius,-15.422486,60.006449,366184466,5062174,,,,,False,False,MU
2022-02-20,MYT,AF,Mayotte,-12.824511,45.165455,366184466,5062174,,,,,False,False,
2022-02-20,MEX,NA,Mexico,23.624813,-102.57867,366184466,5062174,,,,,False,False,MX
2022-02-20,MDA,EU,Moldova,46.979527,28.377195,495415,11117,467312,16986,,,False,False,MD
2022-02-20,MCO,EU,Monaco,43.738348,7.424451,366184466,5062174,,,,,False,False,MC
2022-02-20,MNG,AS,Mongolia,46.860945,103.836986,366184466,5062174,,,,,False,False,MN
2022-02-21,MNE,EU,Montenegro,42.710152,19.410069,228956,2666,,,0,,False,True,ME
2022-02-20,MSR,NA,Montserrat,16.749415,-62.192741,366184466,5062174,,,,,False,False,MS
2022-02-20,MAR,AF,Morocco,31.792306,-7.080168,366184466,5062174,,,,,False,False,MA
2022-02-20,MOZ,AF,Mozambique,-18.670284,35.530157,366184466,5062174,,,,,False,False,MZ
2022-02-13,MMR,AS,"Myanmar, Union of",19.163916,96.68303,350188342,5141981,0,345046361,0,0,False,False,MM
2022-02-20,NAM,AF,Namibia,-22.965662,18.486165,366184466,5062174,,,,,False,False,NA
2022-02-20,NRU,OC,Nauru,-0.52832,166.922157,366184466,5062174,,,,,False,False,NR
2022-02-20,NPL,AS,Nepal,28.395056,84.127803,366184466,5062174,,,,,False,False,NP
2022-02-20,NLD,EU,Netherlands,52.133057,5.29525,6082539,27621,0,6054918,3581537,0,True,True,NL
2022-02-20,NCL,OC,New Caledonia,-21.123889,165.846901,366184466,5062174,,,,,False,False,NC
2022-02-20,NZL,OC,New Zealand,-40.9006,174.886,366184466,5062174,,,,,False,False,NZ
2022-02-20,NIC,NA,Nicaragua,12.866726,-85.214298,366184466,5062174,,,,,False,False,NI
2022-02-20,NER,AF,Niger,17.611,8.080946,366184466,5062174,,,,,False,False,NE
2022-02-20,NGA,AF,Nigeria,9.084575,8.674252,366184466,5062174,,,,,False,False,NG
2022-02-20,NIU,OC,Niue,-19.051631,-169.86309,366184466,5062174,,,,,False,False,
2022-02-20,MKD,EU,North Macedonia,41.611,21.751417,366184466,5062174,,,,,False,True,MK
2022-02-13,MNP,OC,Northern Mariana Islands,17.331835,145.47577,350188342,5141981,0,345046361,0,0,False,False,MP
2022-02-21,NOR,EU,Norway,64.583013,17.86411,1118796,1549,0,1117247,8830,1634,False,True,NO
2022-02-20,OMN,AS,Oman,21.516861,55.859291,366184466,5062174,,,,,False,False,OM
2022-02-20,PAK,AS,Pakistan,30.441861,69.359766,366184466,5062174,,,,,False,False,PK
2022-02-20,PLW,OC,Palau,5.63663,132.920475,366184466,5062174,,,,,False,False,PW
2022-02-13,PSE,AS,Palestine,31.881464,34.894978,350188342,5141981,0,345046361,0,0,False,False,PS
2022-02-20,PAN,NA,Panama,8.41771,-80.112777,366184466,5062174,,,,,False,False,PA
2022-02-20,PNG,OC,Papua New Guinea,-6.48825,148.403152,366184466,5062174,,,,,False,False,PG
2022-02-20,PRY,SA,Paraguay,-23.451389,-58.453215,366184466,5062174,,,,,False,False,PY
2022-02-20,PER,SA,Peru,-9.181352,-75.002365,366184466,5062174,,,,,False,False,PE
2022-02-20,PHL,AS,Philippines,12.881958,121.76654,366184466,5062174,,,,,False,False,PH
2022-02-21,POL,EU,Poland,51.92275,19.136875,5521766,109833,4890810,521123,,,True,True,PL
2022-02-20,PRT,EU,Portugal,39.553444,-7.839319,366184466,5062174,,,,,True,True,PT
2022-02-20,PRI,NA,Puerto Rico,18.223285,-66.592731,366184466,5062174,,,,,False,False,PR
2022-02-20,QAT,AS,Qatar,25.318833,51.19693,366184466,5062174,,,,,False,False,QA
2022-02-20,REU,AF,Réunion,-21.114533,55.532062,366184466,5062174,,,,,False,False,
2022-02-21,ROU,EU,Romania,45.947125,24.980514,2660649,62624,,,,,True,True,RO
2021-10-15,RUS,EU,Russian Fed.,61.523111,-74.9,7925176,223429,6960024,741723,0,0,False,False,RU
2022-02-20,RWA,AF,Rwanda,-1.94708,29.876376,366184466,5062174,,,,,False,False,RW
2022-02-20,SHN,AF,Saint Helena,-11.953679,-10.029991,366184466,5062174,,,,,False,False,
2022-02-20,KNA,NA,Saint Kitts and Nevis,17.257731,-62.706413,366184466,5062174,,,,,False,False,KN
2022-02-20,LCA,NA,Saint Lucia,13.904011,-60.974176,366184466,5062174,,,,,False,False,LC
2022-02-20,SPM,NA,Saint Pierre and Miquelon,46.966164,-56.336825,366184466,5062174,,,,,False,False,
2022-02-20,VCT,NA,Saint Vincent and the Grenadines,12.980909,-61.287392,366184466,5062174,,,,,False,False,VC
2022-02-13,BLM,NA,Saint-Barthélemy,17.903496,-62.831448,350188342,5141981,0,345046361,0,0,False,False,BL
2022-02-20,WSM,OC,Samoa,-13.736573,-172.10717,366184466,5062174,,,,,False,False,
2022-02-20,SMR,EU,San Marino,43.942973,12.460035,366184466,5062174,,,,,False,False,SM
2022-02-20,STP,AF,Sao Tome and Principe,0.863044,6.968272,366184466,5062174,,,,,False,False,ST
2022-02-20,SAU,AS,Saudi Arabia,23.886291,45.081139,366184466,5062174,,,,,False,False,SA
2022-02-20,SEN,AF,Senegal,14.499454,-14.445562,366184466,5062174,,,,,False,False,SN
2022-02-20,SRB,EU,Serbia,44.206802,20.911009,366184466,5062174,,,,,False,True,RS
2022-02-20,SYC,AF,Seychelles,-7.018792,51.242138,366184466,5062174,,,,,False,False,SC
2022-02-20,SLE,AF,Sierra Leone,8.464806,-11.795935,366184466,5062174,,,,,False,False,SL
2022-02-20,SGP,AS,Singapore,1.364917,103.822872,366184466,5062174,,,,,False,False,SG
2022-02-13,SXM,NA,Sint Maarten (Dutch part),18.04097,-63.078516,350188342,5141981,0,345046361,0,0,False,False,SX
2022-02-09,SVK,EU,Slovakia,48.665639,19.709097,1146260,17995,,,2178,297,True,True,SK
2022-01-23,SVN,EU,Slovenia,46.145528,14.974541,611697,6264,11292,594141,636,135,True,True,SI
2022-02-20,SLB,OC,Solomon Islands,-9.220083,161.244735,366184466,5062174,,,,,False,False,SB
2022-02-20,SOM,AF,Somalia,5.152149,46.199616,366184466,5062174,,,,,False,False,SO
2022-02-20,ZAF,AF,South Africa,-28.48322,24.676997,366184466,5062174,,,,,False,False,ZA
2022-02-13,KOR,AS,South Korea,35.901696,127.735889,350188342,5141981,0,345046361,0,0,False,False,KR
2022-02-20,SSD,AF,South Sudan,7.856272,30.040413,366184466,5062174,,,,,False,False,SS
2022-02-16,ESP,EU,Spain,39.896027,-2.487694,10744394,3065343,,,10898,1372,True,True,ES
2022-02-20,LKA,AS,Sri Lanka,7.874097,80.767098,366184466,5062174,,,,,False,False,LK
2022-02-20,SDN,AF,Sudan,15.45847,30.217636,366184466,5062174,,,,,False,False,SD
2022-02-20,SUR,SA,Suriname,3.917846,-56.032028,366184466,5062174,,,,,False,False,SR
2022-01-25,SWE,EU,Sweden,62.199806,17.637493,3946970,15768,,,,8527,True,True,SE
2022-02-21,CHE,EU,Switzerland,46.815514,8.224472,2652077,13081,313537,2325459,2227,191,False,False,CH
2022-02-20,SYR,AS,Syrian Arab Republic,34.814902,39.056126,366184466,5062174,,,,,False,False,SY
2022-02-13,TWN,AS,Taiwan,21.901806,121.471,350188342,5141981,0,345046361,0,0,False,False,TW
2022-02-20,TJK,AS,Tajikistan,38.858194,71.26218,366184466,5062174,,,,,False,False,TJ
2022-02-13,TZA,AF,Tanzania,-6.368216,34.885195,350188342,5141981,0,345046361,0,0,False,False,TZ
2022-02-20,THA,AS,Thailand,13.036597,101.492515,366184466,5062174,,,,,False,False,TH
2022-02-20,TGO,AF,Togo,8.621697,0.829685,366184466,5062174,,,,,False,False,TG
2022-02-20,TKL,OC,Tokelau,-8.967362,-171.855881,366184466,5062174,,,,,False,False,
2022-02-20,TON,OC,Tonga,-18.509023,-174.794922,366184466,5062174,,,,,False,False,
2022-02-20,TTO,NA,Trinidad and Tobago,10.687223,-61.220852,366184466,5062174,,,,,False,False,TT
2022-02-20,TUN,AF,Tunisia,33.892166,9.561556,366184466,5062174,,,,,False,False,TN
2022-02-20,TUR,AS,Turkey,38.961516,35.25175,366184466,5062174,,,,,False,True,TR
2022-02-20,TKM,AS,Turkmenistan,38.968319,59.562873,366184466,5062174,,,,,False,False,TM
2022-02-20,TCA,NA,Turks and Caicos Islands,21.692252,-71.803756,366184466,5062174,,,,,False,False,TC
2022-02-20,TUV,OC,Tuvalu,-8.221571,177.964073,366184466,5062174,,,,,False,False,TV
2022-02-20,UGA,AF,Uganda,1.365188,32.304651,366184466,5062174,,,,,False,False,UG
2021-11-18,UKR,EU,Ukraine,48.379888,31.168139,3284008,79506,2704217,500285,,,False,False,UA
2022-02-20,ARE,AS,United Arab Emirates,24.358745,53.982494,366184466,5062174,,,,,False,False,AE
2022-01-19,GBR,EU,United Kingdom,54.633221,-3.432277,16581351,152872,0,16428479,,,False,True,UK
2022-02-20,USA,NA,United States of America,36.966428,-95.844032,366184466,5062174,,,,,False,False,US
2022-02-20,VIR,NA,United States Virgin Islands,18.036736,-64.801704,366184466,5062174,,,,,False,False,VI
2022-02-20,URY,SA,Uruguay,-32.53152,-55.758328,366184466,5062174,,,,,False,False,UY
2022-02-20,UZB,AS,Uzbekistan,41.379722,64.564459,366184466,5062174,,,,,False,False,UZ
2022-02-20,VUT,OC,Vanuatu,-16.661195,168.214882,366184466,5062174,,,,,False,False,VU
2022-02-13,VEN,SA,Venezuela,6.414107,-66.578926,350188342,5141981,0,345046361,0,0,False,False,VE
2022-02-13,VNM,AS,Vietnam,15.974222,105.806431,350188342,5141981,0,345046361,0,0,False,False,VN
2022-02-13,ESH,AF,Western Sahara,24.221916,-12.886729,350188342,5141981,0,345046361,0,0,False,False,EH
2022-02-13,WWW,WW,Whole Globe,0,0,350188342,5141981,0,345046361,0,0,False,False,
2022-02-20,YEM,AS,Yemen,15.555545,48.531539,366184466,5062174,,,,,False,False,YE
2022-02-20,ZMB,AF,Zambia,-13.151917,27.852537,366184466,5062174,,,,,False,False,ZM
2022-02-20,ZWE,AF,Zimbabwe,-19.013286,29.146667,366184466,5062174,,,,,False,False,ZW
