Date,iso3,Continent,CountryName,lat,lon,CumulativePositive,CumulativeDeceased,CumulativeRecovered,CurrentlyPositive,Hospitalized,IntensiveCare,EUcountry,EUCPMcountry,NUTS
2022-01-04,AFG,AS,Afghanistan,33.930445,67.678945,248461268,4695383,,,,,False,False,AF
2022-01-04,ALB,EU,Albania,41.156986,20.181222,212021,3224,201748,7049,97,16,False,False,AL
2022-01-04,DZA,AF,Algeria,28.026875,1.65284,248461268,4695383,,,,,False,False,DZ
2022-01-04,ASM,OC,American Samoa,-12.716089,-170.253983,248461268,4695383,,,,,False,False,
2022-01-04,AND,EU,Andorra,42.542268,1.596865,24802,141,,,27,,False,False,AD
2022-01-04,AGO,AF,Angola,-11.209451,17.880669,248461268,4695383,,,,,False,False,AO
2022-01-04,AIA,NA,Anguilla,18.225119,-63.07213,248461268,4695383,,,,,False,False,AI
2022-01-04,ATG,NA,Antigua and Barbuda,17.363183,-61.789423,248461268,4695383,,,,,False,False,AG
2022-01-04,ARG,SA,Argentina,-38.421295,-63.587403,248461268,4695383,,,,,False,False,AR
2022-01-04,ARM,AS,Armenia,40.066181,45.111108,248461268,4695383,,,,,False,False,AM
2022-01-04,ABW,NA,Aruba,12.517713,-69.965112,248461268,4695383,,,,,False,False,AW
2022-01-04,AUS,OC,Australia,-26.853388,133.275154,248461268,4695383,,,,,False,False,AU
2022-01-03,AUT,EU,Austria,47.697542,13.349319,1290735,13352,1232897,44486,707,321,True,True,AT
2022-01-04,AZE,AS,Azerbaijan,40.147396,47.572098,248461268,4695383,,,,,False,False,AZ
2022-01-04,BHS,NA,Bahamas,24.885993,-76.709892,248461268,4695383,,,,,False,False,BS
2022-01-04,BHR,AS,Bahrain,26.039722,50.559306,248461268,4695383,,,,,False,False,BH
2022-01-04,BGD,AS,Bangladesh,23.68764,90.351002,248461268,4695383,,,,,False,False,BD
2022-01-04,BRB,NA,Barbados,13.18355,-59.534649,248461268,4695383,,,,,False,False,BB
2022-01-04,BLR,EU,Belarus,53.711111,27.973847,702374,5638,,,,,False,False,BY
2022-01-03,BEL,EU,Belgium,50.499527,4.475402,2133284,28385,,,1866,520,True,True,BE
2022-01-04,BLZ,NA,Belize,17.192929,-88.5009,248461268,4695383,,,,,False,False,BZ
2022-01-04,BEN,AF,Benin,9.322048,2.313138,248461268,4695383,,,,,False,False,BJ
2022-01-04,BMU,NA,Bermuda,32.320236,-64.774022,248461268,4695383,,,,,False,False,BM
2022-01-04,BTN,AS,Bhutan,27.515709,90.442455,248461268,4695383,,,,,False,False,BT
2021-12-26,BOL,SA,Bolivia,-16.28835,-63.549429,247417597,4846394,0,242571203,0,0,False,False,BO
2021-12-26,BES,NA,"Bonaire, Saint Eustatius and Saba",12.160842,-68.304383,247417597,4846394,0,242571203,0,0,False,False,BQ
2021-12-31,BIH,EU,Bosnia and Herzegovina,43.892652,17.670584,291313,13442,,,,,False,False,BA
2022-01-04,BWA,AF,Botswana,-22.344029,24.680158,248461268,4695383,,,,,False,False,BW
2022-01-04,BRA,SA,Brazil,-14.242915,-53.189267,248461268,4695383,,,,,False,False,BR
2022-01-04,VGB,NA,British Virgin Islands,18.573601,-64.492065,248461268,4695383,,,,,False,False,VG
2021-12-26,BRN,AS,Brunei,4.525125,114.715443,247417597,4846394,0,242571203,0,0,False,False,BN
2021-09-23,BGR,EU,Bulgaria,42.729862,25.491667,487588,20251,426266,41071,,,True,True,BG
2022-01-04,BFA,AF,Burkina Faso,12.24185,-1.55676,248461268,4695383,,,,,False,False,BF
2022-01-04,BDI,AF,Burundi,-3.387918,29.920395,248461268,4695383,,,,,False,False,BI
2022-01-04,CPV,AF,Cabo Verde,16.0026,-24.014095,248461268,4695383,,,,,False,False,CV
2022-01-04,KHM,AS,Cambodia,12.54775,104.98386,248461268,4695383,,,,,False,False,KH
2022-01-04,CMR,AF,Cameroon,7.365302,12.343439,248461268,4695383,,,,,False,False,CM
2022-01-04,CAN,NA,Canada,62.393303,-96.818145,248461268,4695383,,,,,False,False,CA
2022-01-04,CYM,NA,Cayman Islands,19.512365,-80.580025,248461268,4695383,,,,,False,False,KY
2022-01-04,CAF,AF,Central African Republic,6.614041,20.941759,248461268,4695383,,,,,False,False,CF
2022-01-04,TCD,AF,Chad,15.445718,18.738068,248461268,4695383,,,,,False,False,TD
2022-01-04,CHL,SA,Chile,-36.711951,-73.601704,248461268,4695383,,,,,False,False,CL
2022-01-04,CHN,AS,China,34.668138,104.165802,248461268,4695383,,,,,False,False,CN
2022-01-04,COL,SA,Colombia,4.577317,-74.298973,248461268,4695383,,,,,False,False,CO
2022-01-04,COM,AF,Comoros,-11.875119,43.877007,248461268,4695383,,,,,False,False,KM
2021-12-26,COD,AF,"Congo, Democratic Republic of the",-4.034788,21.755028,247417597,4846394,0,242571203,0,0,False,False,CD
2021-12-26,COG,AF,"Congo, Rep. Of",-0.662071,14.927424,247417597,4846394,0,242571203,0,0,False,False,CG
2022-01-04,COK,OC,Cook Islands,-15.983639,-159.202896,248461268,4695383,,,,,False,False,
2022-01-04,CRI,NA,Costa Rica,9.624897,-84.253308,248461268,4695383,,,,,False,False,CR
2021-12-26,CIV,AF,Cote d'Ivoire,7.546855,-5.547099,247417597,4846394,0,242571203,0,0,False,False,CI
2021-10-19,HRV,EU,Croatia,44.48732,16.460306,428233,8906,355542,63785,,,True,True,HR
2022-01-04,CUB,NA,Cuba,21.527062,-79.544601,248461268,4695383,,,,,False,False,CU
2022-01-04,CUW,NA,Curaçao,12.209208,-68.945576,248461268,4695383,,,,,False,False,CW
2022-01-02,CYP,EU,Cyprus,35.167406,33.435499,177721,735,137747,39239,2935,,True,True,CY
2021-12-19,CZE,EU,Czech Republic,49.800901,15.478153,2406989,35288,2173844,197857,,,True,True,CZ
2021-11-30,DNK,EU,Denmark,56.155403,11.617223,483253,2883,0,480370,446,0,True,True,DK
2022-01-04,DJI,AF,Djibouti,11.808375,42.595222,248461268,4695383,,,,,False,False,DJ
2022-01-04,DMA,NA,Dominica,15.416749,-61.36413,248461268,4695383,,,,,False,False,DM
2022-01-04,DOM,NA,Dominican Republic,18.736509,-70.161744,248461268,4695383,,,,,False,False,DO
2021-12-26,TLS,OC,East Timor,-8.79973,125.677345,247417597,4846394,0,242571203,0,0,False,False,TL
2022-01-04,ECU,SA,Ecuador,-1.779901,-78.131592,248461268,4695383,,,,,False,False,EC
2022-01-04,EGY,AF,Egypt,26.696362,30.246486,248461268,4695383,,,,,False,False,EG
2022-01-04,SLV,NA,El Salvador,13.796873,-88.910412,248461268,4695383,,,,,False,False,SV
2022-01-04,GNQ,AF,Equatorial Guinea,1.633925,10.341295,248461268,4695383,,,,,False,False,GQ
2022-01-04,ERI,AF,Eritrea,15.18132,39.786709,248461268,4695383,,,,,False,False,ER
2022-01-04,EST,EU,Estonia,58.596209,25.023778,244733,,,,,,True,True,EE
2022-01-04,ETH,AF,Ethiopia,9.148086,40.493059,248461268,4695383,,,,,False,False,ET
2021-12-26,FRO,EU,Faeroe Islands,61.897846,-6.928791,247417597,4846394,0,242571203,0,0,False,False,
2022-01-04,FLK,SA,Falkland Islands (Malvinas),-51.800581,-59.528839,248461268,4695383,,,,,False,False,FK
2022-01-04,FJI,OC,Fiji,-16.578041,178.416339,248461268,4695383,,,,,False,False,FJ
2022-01-04,FIN,EU,Finland,64.952416,26.068944,282833,846,0,281987,,,True,True,FI
2022-01-04,FRA,EU,France,46.232193,2.209667,248461268,4695383,,,,,True,True,FR
2022-01-04,GUF,SA,French Guiana,3.951795,-53.07823,248461268,4695383,,,,,False,False,
2022-01-04,PYF,OC,French Polynesia,-17.778572,-143.903496,248461268,4695383,,,,,False,False,PF
2022-01-04,GAB,AF,Gabon,-0.828097,11.598909,248461268,4695383,,,,,False,False,GA
2022-01-04,GMB,AF,Gambia,13.445411,-15.311436,248461268,4695383,,,,,False,False,GM
2022-01-04,GEO,AS,Georgia,42.319847,43.368055,248461268,4695383,,,,,False,False,GE
2022-01-04,DEU,EU,Germany,51.165706,10.452764,7238410,112579,6531900,593931,,,True,True,DE
2022-01-04,GHA,AF,Ghana,7.955012,-1.03182,248461268,4695383,,,,,False,False,GH
2022-01-04,GIB,EU,Gibraltar,36.132235,-5.352273,248461268,4695383,,,,,False,False,GI
2022-01-04,GRC,EU,Greece,38.275283,23.810343,248461268,4695383,,,,,True,True,EL
2022-01-04,GRL,NA,Greenland,71.702379,-42.177174,248461268,4695383,,,,,False,False,
2022-01-04,GRD,NA,Grenada,12.152588,-61.689557,248461268,4695383,,,,,False,False,GD
2022-01-04,GLP,NA,Guadeloupe,16.192207,-61.272382,248461268,4695383,,,,,False,False,
2022-01-04,GUM,OC,Guam,13.446472,144.786613,248461268,4695383,,,,,False,False,GU
2022-01-04,GTM,NA,Guatemala,15.776261,-90.229744,248461268,4695383,,,,,False,False,GT
2022-01-04,GGY,EU,Guernsey,49.575693,-2.42318,248461268,4695383,,,,,False,False,GG
2022-01-04,GIN,AF,Guinea,9.934887,-11.283845,248461268,4695383,,,,,False,False,GN
2021-12-26,GNB,AF,Guinea Bissau,11.802527,-15.177029,247417597,4846394,0,242571203,0,0,False,False,GW
2022-01-04,GUY,SA,Guyana,4.866324,-58.932507,248461268,4695383,,,,,False,False,GY
2022-01-04,HTI,NA,Haiti,19.054426,-73.045971,248461268,4695383,,,,,False,False,HT
2022-01-04,VAT,EU,Holy See,41.903859,12.452041,248461268,4695383,,,,,False,False,
2022-01-04,HND,NA,Honduras,14.746333,-86.253097,248461268,4695383,,,,,False,False,HN
2021-12-31,HUN,EU,Hungary,47.164638,19.508944,1256415,39186,1111676,105553,3492,334,True,True,HU
2022-01-04,ISL,EU,Iceland,64.963942,-19.021169,248461268,4695383,,,,,False,True,IS
2022-01-04,IND,AS,India,21.125681,82.794998,248461268,4695383,,,,,False,False,IN
2022-01-04,IDN,AS,Indonesia,-2.518722,118.015568,248461268,4695383,,,,,False,False,ID
2021-12-26,IRN,AS,Iran,32.420653,53.682375,247417597,4846394,0,242571203,0,0,False,False,IR
2022-01-04,IRQ,AS,Iraq,33.223737,43.685901,248461268,4695383,,,,,False,False,IQ
2022-01-04,IRL,EU,Ireland,53.41975,-8.240472,867199,5912,,,21662,2300,True,True,IE
2022-01-04,IMN,EU,Isle of Man,54.23782,-4.555111,248461268,4695383,,,,,False,False,IM
2022-01-04,ISR,AS,Israel,31.418388,35.073541,248461268,4695383,,,,,False,False,IL
2022-01-04,ITA,EU,Italy,41.873987,12.564167,6566947,138045,5163605,1265297,14304,1392,True,True,IT
2022-01-04,JAM,NA,Jamaica,18.115265,-77.27348,248461268,4695383,,,,,False,False,JM
2022-01-04,JPN,AS,Japan,34.886306,134.379711,248461268,4695383,,,,,False,False,JP
2022-01-04,JEY,EU,Jersey,49.217445,-2.141056,248461268,4695383,,,,,False,False,JE
2022-01-04,JOR,AS,Jordan,31.276778,37.130583,248461268,4695383,,,,,False,False,JO
2022-01-04,KAZ,AS,Kazakhstan,48.193764,66.902264,248461268,4695383,,,,,False,False,KZ
2022-01-04,KEN,AF,Kenya,0.170945,37.903969,248461268,4695383,,,,,False,False,KE
2022-01-04,KIR,OC,Kiribati,-3.358734,9.670395,248461268,4695383,,,,,False,False,
2021-12-26,XKX,EU,Kosovo,41.85637,21.803351,247417597,4846394,0,242571203,0,0,False,False,XK
2022-01-04,KWT,AS,Kuwait,29.310278,47.493515,248461268,4695383,,,,,False,False,KW
2022-01-04,KGZ,AS,Kyrgyzstan,41.205528,74.779888,248461268,4695383,,,,,False,False,KG
2021-12-26,LAO,AS,Laos,18.205208,103.895043,247417597,4846394,0,242571203,0,0,False,False,LA
2022-01-04,LVA,EU,Latvia,56.875584,24.607722,279320,4600,,,,,True,True,LV
2022-01-04,LBN,AS,Lebanon,33.872639,35.876736,248461268,4695383,,,,,False,False,LB
2022-01-04,LSO,AF,Lesotho,-29.620511,28.247414,248461268,4695383,,,,,False,False,LS
2022-01-04,LBR,AF,Liberia,6.452424,-9.428598,248461268,4695383,,,,,False,False,LR
2022-01-04,LBY,AF,Libya,26.338522,17.268816,248461268,4695383,,,,,False,False,LY
2022-01-04,LIE,EU,Liechtenstein,47.164696,9.555,248461268,4695383,,,,,False,False,LI
2022-01-03,LTU,EU,Lithuania,55.174112,23.906736,526443,7462,491641,27340,,,True,True,LT
2022-01-03,LUX,EU,Luxembourg,49.815764,6.131514,106235,918,,,,,True,True,LU
2022-01-04,MDG,AF,Madagascar,-18.777192,46.854328,248461268,4695383,,,,,False,False,MG
2022-01-04,MWI,AF,Malawi,-13.24627,34.295385,248461268,4695383,,,,,False,False,MW
2022-01-04,MYS,AS,Malaysia,4.109319,109.455475,248461268,4695383,,,,,False,False,MY
2022-01-04,MDV,AS,Maldives,3.202833,73.165249,248461268,4695383,,,,,False,False,MV
2022-01-04,MLI,AF,Mali,17.579757,-3.998823,248461268,4695383,,,,,False,False,ML
2022-01-04,MLT,EU,Malta,35.946151,14.384612,56206,480,41209,14517,,,True,True,MT
2022-01-04,MHL,OC,Marshall Islands,10.10382,168.728363,248461268,4695383,,,,,False,False,
2022-01-04,MTQ,NA,Martinique,14.635541,-61.022814,248461268,4695383,,,,,False,False,
2022-01-04,MRT,AF,Mauritania,21.00681,-10.947098,248461268,4695383,,,,,False,False,MR
2022-01-04,MUS,AF,Mauritius,-15.422486,60.006449,248461268,4695383,,,,,False,False,MU
2022-01-04,MYT,AF,Mayotte,-12.824511,45.165455,248461268,4695383,,,,,False,False,
2022-01-04,MEX,NA,Mexico,23.624813,-102.57867,248461268,4695383,,,,,False,False,MX
2021-12-31,MDA,EU,Moldova,46.979527,28.377195,376155,10275,362429,3451,,,False,False,MD
2022-01-04,MCO,EU,Monaco,43.738348,7.424451,248461268,4695383,,,,,False,False,MC
2022-01-04,MNG,AS,Mongolia,46.860945,103.836986,248461268,4695383,,,,,False,False,MN
2022-01-04,MNE,EU,Montenegro,42.710152,19.410069,177455,2422,,,0,,False,True,ME
2022-01-04,MSR,NA,Montserrat,16.749415,-62.192741,248461268,4695383,,,,,False,False,MS
2022-01-04,MAR,AF,Morocco,31.792306,-7.080168,248461268,4695383,,,,,False,False,MA
2022-01-04,MOZ,AF,Mozambique,-18.670284,35.530157,248461268,4695383,,,,,False,False,MZ
2021-12-26,MMR,AS,"Myanmar, Union of",19.163916,96.68303,247417597,4846394,0,242571203,0,0,False,False,MM
2022-01-04,NAM,AF,Namibia,-22.965662,18.486165,248461268,4695383,,,,,False,False,NA
2022-01-04,NRU,OC,Nauru,-0.52832,166.922157,248461268,4695383,,,,,False,False,NR
2022-01-04,NPL,AS,Nepal,28.395056,84.127803,248461268,4695383,,,,,False,False,NP
2022-01-04,NLD,EU,Netherlands,52.133057,5.29525,3198835,27128,0,3171707,49737,0,True,True,NL
2022-01-04,NCL,OC,New Caledonia,-21.123889,165.846901,248461268,4695383,,,,,False,False,NC
2022-01-04,NZL,OC,New Zealand,-40.9006,174.886,248461268,4695383,,,,,False,False,NZ
2022-01-04,NIC,NA,Nicaragua,12.866726,-85.214298,248461268,4695383,,,,,False,False,NI
2022-01-04,NER,AF,Niger,17.611,8.080946,248461268,4695383,,,,,False,False,NE
2022-01-04,NGA,AF,Nigeria,9.084575,8.674252,248461268,4695383,,,,,False,False,NG
2022-01-04,NIU,OC,Niue,-19.051631,-169.86309,248461268,4695383,,,,,False,False,
2022-01-04,MKD,EU,North Macedonia,41.611,21.751417,248461268,4695383,,,,,False,True,MK
2021-12-26,MNP,OC,Northern Mariana Islands,17.331835,145.47577,247417597,4846394,0,242571203,0,0,False,False,MP
2022-01-04,NOR,EU,Norway,64.583013,17.86411,396645,1307,0,395338,7294,1467,False,True,NO
2022-01-04,OMN,AS,Oman,21.516861,55.859291,248461268,4695383,,,,,False,False,OM
2022-01-04,PAK,AS,Pakistan,30.441861,69.359766,248461268,4695383,,,,,False,False,PK
2022-01-04,PLW,OC,Palau,5.63663,132.920475,248461268,4695383,,,,,False,False,PW
2021-12-26,PSE,AS,Palestine,31.881464,34.894978,247417597,4846394,0,242571203,0,0,False,False,PS
2022-01-04,PAN,NA,Panama,8.41771,-80.112777,248461268,4695383,,,,,False,False,PA
2022-01-04,PNG,OC,Papua New Guinea,-6.48825,148.403152,248461268,4695383,,,,,False,False,PG
2022-01-04,PRY,SA,Paraguay,-23.451389,-58.453215,248461268,4695383,,,,,False,False,PY
2022-01-04,PER,SA,Peru,-9.181352,-75.002365,248461268,4695383,,,,,False,False,PE
2022-01-04,PHL,AS,Philippines,12.881958,121.76654,248461268,4695383,,,,,False,False,PH
2022-01-04,POL,EU,Poland,51.92275,19.136875,4145518,98034,3673234,374250,,,True,True,PL
2022-01-04,PRT,EU,Portugal,39.553444,-7.839319,248461268,4695383,,,,,True,True,PT
2022-01-04,PRI,NA,Puerto Rico,18.223285,-66.592731,248461268,4695383,,,,,False,False,PR
2022-01-04,QAT,AS,Qatar,25.318833,51.19693,248461268,4695383,,,,,False,False,QA
2022-01-04,REU,AF,Réunion,-21.114533,55.532062,248461268,4695383,,,,,False,False,
2022-01-04,ROU,EU,Romania,45.947125,24.980514,1811724,58866,,,,,True,True,RO
2021-10-15,RUS,EU,Russian Fed.,61.523111,-74.9,7925176,223429,6960024,741723,0,0,False,False,RU
2022-01-04,RWA,AF,Rwanda,-1.94708,29.876376,248461268,4695383,,,,,False,False,RW
2022-01-04,SHN,AF,Saint Helena,-11.953679,-10.029991,248461268,4695383,,,,,False,False,
2022-01-04,KNA,NA,Saint Kitts and Nevis,17.257731,-62.706413,248461268,4695383,,,,,False,False,KN
2022-01-04,LCA,NA,Saint Lucia,13.904011,-60.974176,248461268,4695383,,,,,False,False,LC
2022-01-04,SPM,NA,Saint Pierre and Miquelon,46.966164,-56.336825,248461268,4695383,,,,,False,False,
2022-01-04,VCT,NA,Saint Vincent and the Grenadines,12.980909,-61.287392,248461268,4695383,,,,,False,False,VC
2021-12-26,BLM,NA,Saint-Barthélemy,17.903496,-62.831448,247417597,4846394,0,242571203,0,0,False,False,BL
2022-01-04,WSM,OC,Samoa,-13.736573,-172.10717,248461268,4695383,,,,,False,False,
2022-01-04,SMR,EU,San Marino,43.942973,12.460035,248461268,4695383,,,,,False,False,SM
2022-01-04,STP,AF,Sao Tome and Principe,0.863044,6.968272,248461268,4695383,,,,,False,False,ST
2022-01-04,SAU,AS,Saudi Arabia,23.886291,45.081139,248461268,4695383,,,,,False,False,SA
2022-01-04,SEN,AF,Senegal,14.499454,-14.445562,248461268,4695383,,,,,False,False,SN
2022-01-04,SRB,EU,Serbia,44.206802,20.911009,248461268,4695383,,,,,False,True,RS
2022-01-04,SYC,AF,Seychelles,-7.018792,51.242138,248461268,4695383,,,,,False,False,SC
2022-01-04,SLE,AF,Sierra Leone,8.464806,-11.795935,248461268,4695383,,,,,False,False,SL
2022-01-04,SGP,AS,Singapore,1.364917,103.822872,248461268,4695383,,,,,False,False,SG
2021-12-26,SXM,NA,Sint Maarten (Dutch part),18.04097,-63.078516,247417597,4846394,0,242571203,0,0,False,False,SX
2022-01-04,SVK,EU,Slovakia,48.665639,19.709097,849516,16788,,,2267,453,True,True,SK
2021-10-14,SVN,EU,Slovenia,46.145528,14.974541,306062,4957,15873,285232,403,116,True,True,SI
2022-01-04,SLB,OC,Solomon Islands,-9.220083,161.244735,248461268,4695383,,,,,False,False,SB
2022-01-04,SOM,AF,Somalia,5.152149,46.199616,248461268,4695383,,,,,False,False,SO
2022-01-04,ZAF,AF,South Africa,-28.48322,24.676997,248461268,4695383,,,,,False,False,ZA
2021-12-26,KOR,AS,South Korea,35.901696,127.735889,247417597,4846394,0,242571203,0,0,False,False,KR
2022-01-04,SSD,AF,South Sudan,7.856272,30.040413,248461268,4695383,,,,,False,False,SS
2022-01-03,ESP,EU,Spain,39.896027,-2.487694,6667511,89573,,,12339,1974,True,True,ES
2022-01-04,LKA,AS,Sri Lanka,7.874097,80.767098,248461268,4695383,,,,,False,False,LK
2022-01-04,SDN,AF,Sudan,15.45847,30.217636,248461268,4695383,,,,,False,False,SD
2022-01-04,SUR,SA,Suriname,3.917846,-56.032028,248461268,4695383,,,,,False,False,SR
2022-01-03,SWE,EU,Sweden,62.199806,17.637493,1357753,15330,,,,8275,True,True,SE
2022-01-04,CHE,EU,Switzerland,46.815514,8.224472,1366813,12397,177266,1177150,1912,316,False,False,CH
2022-01-04,SYR,AS,Syrian Arab Republic,34.814902,39.056126,248461268,4695383,,,,,False,False,SY
2021-12-26,TWN,AS,Taiwan,21.901806,121.471,247417597,4846394,0,242571203,0,0,False,False,TW
2022-01-04,TJK,AS,Tajikistan,38.858194,71.26218,248461268,4695383,,,,,False,False,TJ
2021-12-26,TZA,AF,Tanzania,-6.368216,34.885195,247417597,4846394,0,242571203,0,0,False,False,TZ
2022-01-04,THA,AS,Thailand,13.036597,101.492515,248461268,4695383,,,,,False,False,TH
2022-01-04,TGO,AF,Togo,8.621697,0.829685,248461268,4695383,,,,,False,False,TG
2022-01-04,TKL,OC,Tokelau,-8.967362,-171.855881,248461268,4695383,,,,,False,False,
2022-01-04,TON,OC,Tonga,-18.509023,-174.794922,248461268,4695383,,,,,False,False,
2022-01-04,TTO,NA,Trinidad and Tobago,10.687223,-61.220852,248461268,4695383,,,,,False,False,TT
2022-01-04,TUN,AF,Tunisia,33.892166,9.561556,248461268,4695383,,,,,False,False,TN
2022-01-04,TUR,AS,Turkey,38.961516,35.25175,248461268,4695383,,,,,False,True,TR
2022-01-04,TKM,AS,Turkmenistan,38.968319,59.562873,248461268,4695383,,,,,False,False,TM
2022-01-04,TCA,NA,Turks and Caicos Islands,21.692252,-71.803756,248461268,4695383,,,,,False,False,TC
2022-01-04,TUV,OC,Tuvalu,-8.221571,177.964073,248461268,4695383,,,,,False,False,TV
2022-01-04,UGA,AF,Uganda,1.365188,32.304651,248461268,4695383,,,,,False,False,UG
2021-11-18,UKR,EU,Ukraine,48.379888,31.168139,3284008,79506,2704217,500285,,,False,False,UA
2022-01-04,ARE,AS,United Arab Emirates,24.358745,53.982494,248461268,4695383,,,,,False,False,AE
2022-01-04,GBR,EU,United Kingdom,54.633221,-3.432277,13557554,148941,0,13408613,,,False,True,UK
2022-01-04,USA,NA,United States of America,36.966428,-95.844032,248461268,4695383,,,,,False,False,US
2022-01-04,VIR,NA,United States Virgin Islands,18.036736,-64.801704,248461268,4695383,,,,,False,False,VI
2022-01-04,URY,SA,Uruguay,-32.53152,-55.758328,248461268,4695383,,,,,False,False,UY
2022-01-04,UZB,AS,Uzbekistan,41.379722,64.564459,248461268,4695383,,,,,False,False,UZ
2022-01-04,VUT,OC,Vanuatu,-16.661195,168.214882,248461268,4695383,,,,,False,False,VU
2021-12-26,VEN,SA,Venezuela,6.414107,-66.578926,247417597,4846394,0,242571203,0,0,False,False,VE
2021-12-26,VNM,AS,Vietnam,15.974222,105.806431,247417597,4846394,0,242571203,0,0,False,False,VN
2021-12-26,ESH,AF,Western Sahara,24.221916,-12.886729,247417597,4846394,0,242571203,0,0,False,False,EH
2021-12-26,WWW,WW,Whole Globe,0,0,247417597,4846394,0,242571203,0,0,False,False,
2022-01-04,YEM,AS,Yemen,15.555545,48.531539,248461268,4695383,,,,,False,False,YE
2022-01-04,ZMB,AF,Zambia,-13.151917,27.852537,248461268,4695383,,,,,False,False,ZM
2022-01-04,ZWE,AF,Zimbabwe,-19.013286,29.146667,248461268,4695383,,,,,False,False,ZW
