Date,iso3,Continent,CountryName,lat,lon,CumulativePositive,CumulativeDeceased,CumulativeRecovered,CurrentlyPositive,Hospitalized,IntensiveCare,EUcountry,EUCPMcountry,NUTS
2022-02-09,AFG,AS,Afghanistan,33.930445,67.678945,350777199,4975190,,,,,False,False,AF
2022-02-09,ALB,EU,Albania,41.156986,20.181222,265716,3393,250429,11894,115,15,False,False,AL
2022-02-09,DZA,AF,Algeria,28.026875,1.65284,350777199,4975190,,,,,False,False,DZ
2022-02-09,ASM,OC,American Samoa,-12.716089,-170.253983,350777199,4975190,,,,,False,False,
2022-02-10,AND,EU,Andorra,42.542268,1.596865,37074,148,,,13,,False,False,AD
2022-02-09,AGO,AF,Angola,-11.209451,17.880669,350777199,4975190,,,,,False,False,AO
2022-02-09,AIA,NA,Anguilla,18.225119,-63.07213,350777199,4975190,,,,,False,False,AI
2022-02-09,ATG,NA,Antigua and Barbuda,17.363183,-61.789423,350777199,4975190,,,,,False,False,AG
2022-02-09,ARG,SA,Argentina,-38.421295,-63.587403,350777199,4975190,,,,,False,False,AR
2022-02-09,ARM,AS,Armenia,40.066181,45.111108,350777199,4975190,,,,,False,False,AM
2022-02-09,ABW,NA,Aruba,12.517713,-69.965112,350777199,4975190,,,,,False,False,AW
2022-02-09,AUS,OC,Australia,-26.853388,133.275154,350777199,4975190,,,,,False,False,AU
2022-02-09,AUT,EU,Austria,47.697542,13.349319,2200664,13791,1760375,426498,1898,187,True,True,AT
2022-02-09,AZE,AS,Azerbaijan,40.147396,47.572098,350777199,4975190,,,,,False,False,AZ
2022-02-09,BHS,NA,Bahamas,24.885993,-76.709892,350777199,4975190,,,,,False,False,BS
2022-02-09,BHR,AS,Bahrain,26.039722,50.559306,350777199,4975190,,,,,False,False,BH
2022-02-09,BGD,AS,Bangladesh,23.68764,90.351002,350777199,4975190,,,,,False,False,BD
2022-02-09,BRB,NA,Barbados,13.18355,-59.534649,350777199,4975190,,,,,False,False,BB
2022-02-10,BLR,EU,Belarus,53.711111,27.973847,805651,6204,,,,,False,False,BY
2022-02-09,BEL,EU,Belgium,50.499527,4.475402,3386223,29497,,,4091,430,True,True,BE
2022-02-09,BLZ,NA,Belize,17.192929,-88.5009,350777199,4975190,,,,,False,False,BZ
2022-02-09,BEN,AF,Benin,9.322048,2.313138,350777199,4975190,,,,,False,False,BJ
2022-02-09,BMU,NA,Bermuda,32.320236,-64.774022,350777199,4975190,,,,,False,False,BM
2022-02-09,BTN,AS,Bhutan,27.515709,90.442455,350777199,4975190,,,,,False,False,BT
2022-02-06,BOL,SA,Bolivia,-16.28835,-63.549429,335068952,5088041,0,329980911,0,0,False,False,BO
2022-02-06,BES,NA,"Bonaire, Saint Eustatius and Saba",12.160842,-68.304383,335068952,5088041,0,329980911,0,0,False,False,BQ
2022-01-05,BIH,EU,Bosnia and Herzegovina,43.892652,17.670584,295240,13547,,,,,False,False,BA
2022-02-09,BWA,AF,Botswana,-22.344029,24.680158,350777199,4975190,,,,,False,False,BW
2022-02-09,BRA,SA,Brazil,-14.242915,-53.189267,350777199,4975190,,,,,False,False,BR
2022-02-09,VGB,NA,British Virgin Islands,18.573601,-64.492065,350777199,4975190,,,,,False,False,VG
2022-02-06,BRN,AS,Brunei,4.525125,114.715443,335068952,5088041,0,329980911,0,0,False,False,BN
2021-09-23,BGR,EU,Bulgaria,42.729862,25.491667,487588,20251,426266,41071,,,True,True,BG
2022-02-09,BFA,AF,Burkina Faso,12.24185,-1.55676,350777199,4975190,,,,,False,False,BF
2022-02-09,BDI,AF,Burundi,-3.387918,29.920395,350777199,4975190,,,,,False,False,BI
2022-02-09,CPV,AF,Cabo Verde,16.0026,-24.014095,350777199,4975190,,,,,False,False,CV
2022-02-09,KHM,AS,Cambodia,12.54775,104.98386,350777199,4975190,,,,,False,False,KH
2022-02-09,CMR,AF,Cameroon,7.365302,12.343439,350777199,4975190,,,,,False,False,CM
2022-02-09,CAN,NA,Canada,62.393303,-96.818145,350777199,4975190,,,,,False,False,CA
2022-02-09,CYM,NA,Cayman Islands,19.512365,-80.580025,350777199,4975190,,,,,False,False,KY
2022-02-09,CAF,AF,Central African Republic,6.614041,20.941759,350777199,4975190,,,,,False,False,CF
2022-02-09,TCD,AF,Chad,15.445718,18.738068,350777199,4975190,,,,,False,False,TD
2022-02-09,CHL,SA,Chile,-36.711951,-73.601704,350777199,4975190,,,,,False,False,CL
2022-02-09,CHN,AS,China,34.668138,104.165802,350777199,4975190,,,,,False,False,CN
2022-02-09,COL,SA,Colombia,4.577317,-74.298973,350777199,4975190,,,,,False,False,CO
2022-02-09,COM,AF,Comoros,-11.875119,43.877007,350777199,4975190,,,,,False,False,KM
2022-02-06,COD,AF,"Congo, Democratic Republic of the",-4.034788,21.755028,335068952,5088041,0,329980911,0,0,False,False,CD
2022-02-06,COG,AF,"Congo, Rep. Of",-0.662071,14.927424,335068952,5088041,0,329980911,0,0,False,False,CG
2022-02-09,COK,OC,Cook Islands,-15.983639,-159.202896,350777199,4975190,,,,,False,False,
2022-02-09,CRI,NA,Costa Rica,9.624897,-84.253308,350777199,4975190,,,,,False,False,CR
2022-02-06,CIV,AF,Cote d'Ivoire,7.546855,-5.547099,335068952,5088041,0,329980911,0,0,False,False,CI
2021-10-19,HRV,EU,Croatia,44.48732,16.460306,428233,8906,355542,63785,,,True,True,HR
2022-02-09,CUB,NA,Cuba,21.527062,-79.544601,350777199,4975190,,,,,False,False,CU
2022-02-09,CUW,NA,Curaçao,12.209208,-68.945576,350777199,4975190,,,,,False,False,CW
2022-02-06,CYP,EU,Cyprus,35.167406,33.435499,282403,852,235162,46389,3282,,True,True,CY
2021-12-19,CZE,EU,Czech Republic,49.800901,15.478153,2406989,35288,2173844,197857,,,True,True,CZ
2021-11-30,DNK,EU,Denmark,56.155403,11.617223,483253,2883,0,480370,446,0,True,True,DK
2022-02-09,DJI,AF,Djibouti,11.808375,42.595222,350777199,4975190,,,,,False,False,DJ
2022-02-09,DMA,NA,Dominica,15.416749,-61.36413,350777199,4975190,,,,,False,False,DM
2022-02-09,DOM,NA,Dominican Republic,18.736509,-70.161744,350777199,4975190,,,,,False,False,DO
2022-02-06,TLS,OC,East Timor,-8.79973,125.677345,335068952,5088041,0,329980911,0,0,False,False,TL
2022-02-09,ECU,SA,Ecuador,-1.779901,-78.131592,350777199,4975190,,,,,False,False,EC
2022-02-09,EGY,AF,Egypt,26.696362,30.246486,350777199,4975190,,,,,False,False,EG
2022-02-09,SLV,NA,El Salvador,13.796873,-88.910412,350777199,4975190,,,,,False,False,SV
2022-02-09,GNQ,AF,Equatorial Guinea,1.633925,10.341295,350777199,4975190,,,,,False,False,GQ
2022-02-09,ERI,AF,Eritrea,15.18132,39.786709,350777199,4975190,,,,,False,False,ER
2022-02-10,EST,EU,Estonia,58.596209,25.023778,405101,,,,,,True,True,EE
2022-02-09,ETH,AF,Ethiopia,9.148086,40.493059,350777199,4975190,,,,,False,False,ET
2022-02-06,FRO,EU,Faeroe Islands,61.897846,-6.928791,335068952,5088041,0,329980911,0,0,False,False,
2022-02-09,FLK,SA,Falkland Islands (Malvinas),-51.800581,-59.528839,350777199,4975190,,,,,False,False,FK
2022-02-09,FJI,OC,Fiji,-16.578041,178.416339,350777199,4975190,,,,,False,False,FJ
2022-02-10,FIN,EU,Finland,64.952416,26.068944,559589,846,0,558743,,,True,True,FI
2022-02-09,FRA,EU,France,46.232193,2.209667,350777199,4975190,,,,,True,True,FR
2022-02-09,GUF,SA,French Guiana,3.951795,-53.07823,350777199,4975190,,,,,False,False,
2022-02-09,PYF,OC,French Polynesia,-17.778572,-143.903496,350777199,4975190,,,,,False,False,PF
2022-02-09,GAB,AF,Gabon,-0.828097,11.598909,350777199,4975190,,,,,False,False,GA
2022-02-09,GMB,AF,Gambia,13.445411,-15.311436,350777199,4975190,,,,,False,False,GM
2022-02-09,GEO,AS,Georgia,42.319847,43.368055,350777199,4975190,,,,,False,False,GE
2022-02-10,DEU,EU,Germany,51.165706,10.452764,11769542,119453,8487100,3162989,,,True,True,DE
2022-02-09,GHA,AF,Ghana,7.955012,-1.03182,350777199,4975190,,,,,False,False,GH
2022-02-09,GIB,EU,Gibraltar,36.132235,-5.352273,350777199,4975190,,,,,False,False,GI
2022-02-09,GRC,EU,Greece,38.275283,23.810343,350777199,4975190,,,,,True,True,EL
2022-02-09,GRL,NA,Greenland,71.702379,-42.177174,350777199,4975190,,,,,False,False,
2022-02-09,GRD,NA,Grenada,12.152588,-61.689557,350777199,4975190,,,,,False,False,GD
2022-02-09,GLP,NA,Guadeloupe,16.192207,-61.272382,350777199,4975190,,,,,False,False,
2022-02-09,GUM,OC,Guam,13.446472,144.786613,350777199,4975190,,,,,False,False,GU
2022-02-09,GTM,NA,Guatemala,15.776261,-90.229744,350777199,4975190,,,,,False,False,GT
2022-02-09,GGY,EU,Guernsey,49.575693,-2.42318,350777199,4975190,,,,,False,False,GG
2022-02-09,GIN,AF,Guinea,9.934887,-11.283845,350777199,4975190,,,,,False,False,GN
2022-02-06,GNB,AF,Guinea Bissau,11.802527,-15.177029,335068952,5088041,0,329980911,0,0,False,False,GW
2022-02-09,GUY,SA,Guyana,4.866324,-58.932507,350777199,4975190,,,,,False,False,GY
2022-02-09,HTI,NA,Haiti,19.054426,-73.045971,350777199,4975190,,,,,False,False,HT
2022-02-09,VAT,EU,Holy See,41.903859,12.452041,350777199,4975190,,,,,False,False,
2022-02-09,HND,NA,Honduras,14.746333,-86.253097,350777199,4975190,,,,,False,False,HN
2022-02-03,HUN,EU,Hungary,47.164638,19.508944,1600411,413636,1330876,-144101,4451,163,True,True,HU
2022-02-09,ISL,EU,Iceland,64.963942,-19.021169,350777199,4975190,,,,,False,True,IS
2022-02-09,IND,AS,India,21.125681,82.794998,350777199,4975190,,,,,False,False,IN
2022-02-09,IDN,AS,Indonesia,-2.518722,118.015568,350777199,4975190,,,,,False,False,ID
2022-02-06,IRN,AS,Iran,32.420653,53.682375,335068952,5088041,0,329980911,0,0,False,False,IR
2022-02-09,IRQ,AS,Iraq,33.223737,43.685901,350777199,4975190,,,,,False,False,IQ
2022-02-09,IRL,EU,Ireland,53.41975,-8.240472,1230539,6291,,,21662,2300,True,True,IE
2022-02-09,IMN,EU,Isle of Man,54.23782,-4.555111,350777199,4975190,,,,,False,False,IM
2022-02-09,ISR,AS,Israel,31.418388,35.073541,350777199,4975190,,,,,False,False,IL
2022-02-09,ITA,EU,Italy,41.873987,12.564167,11847436,149896,9822915,1874625,19282,1350,True,True,IT
2022-02-09,JAM,NA,Jamaica,18.115265,-77.27348,350777199,4975190,,,,,False,False,JM
2022-02-09,JPN,AS,Japan,34.886306,134.379711,350777199,4975190,,,,,False,False,JP
2022-02-09,JEY,EU,Jersey,49.217445,-2.141056,350777199,4975190,,,,,False,False,JE
2022-02-09,JOR,AS,Jordan,31.276778,37.130583,350777199,4975190,,,,,False,False,JO
2022-02-09,KAZ,AS,Kazakhstan,48.193764,66.902264,350777199,4975190,,,,,False,False,KZ
2022-02-09,KEN,AF,Kenya,0.170945,37.903969,350777199,4975190,,,,,False,False,KE
2022-02-09,KIR,OC,Kiribati,-3.358734,9.670395,350777199,4975190,,,,,False,False,
2022-02-06,XKX,EU,Kosovo,41.85637,21.803351,335068952,5088041,0,329980911,0,0,False,False,XK
2022-02-09,KWT,AS,Kuwait,29.310278,47.493515,350777199,4975190,,,,,False,False,KW
2022-02-09,KGZ,AS,Kyrgyzstan,41.205528,74.779888,350777199,4975190,,,,,False,False,KG
2022-02-06,LAO,AS,Laos,18.205208,103.895043,335068952,5088041,0,329980911,0,0,False,False,LA
2022-02-10,LVA,EU,Latvia,56.875584,24.607722,488329,4987,,,,,True,True,LV
2022-02-09,LBN,AS,Lebanon,33.872639,35.876736,350777199,4975190,,,,,False,False,LB
2022-02-09,LSO,AF,Lesotho,-29.620511,28.247414,350777199,4975190,,,,,False,False,LS
2022-02-09,LBR,AF,Liberia,6.452424,-9.428598,350777199,4975190,,,,,False,False,LR
2022-02-09,LBY,AF,Libya,26.338522,17.268816,350777199,4975190,,,,,False,False,LY
2022-02-09,LIE,EU,Liechtenstein,47.164696,9.555,350777199,4975190,,,,,False,False,LI
2022-02-09,LTU,EU,Lithuania,55.174112,23.906736,787552,8046,673860,105646,,,True,True,LT
2022-02-08,LUX,EU,Luxembourg,49.815764,6.131514,171452,966,,,,,True,True,LU
2022-02-09,MDG,AF,Madagascar,-18.777192,46.854328,350777199,4975190,,,,,False,False,MG
2022-02-09,MWI,AF,Malawi,-13.24627,34.295385,350777199,4975190,,,,,False,False,MW
2022-02-09,MYS,AS,Malaysia,4.109319,109.455475,350777199,4975190,,,,,False,False,MY
2022-02-09,MDV,AS,Maldives,3.202833,73.165249,350777199,4975190,,,,,False,False,MV
2022-02-09,MLI,AF,Mali,17.579757,-3.998823,350777199,4975190,,,,,False,False,ML
2022-02-10,MLT,EU,Malta,35.946151,14.384612,69648,576,66735,2337,,,True,True,MT
2022-02-09,MHL,OC,Marshall Islands,10.10382,168.728363,350777199,4975190,,,,,False,False,
2022-02-09,MTQ,NA,Martinique,14.635541,-61.022814,350777199,4975190,,,,,False,False,
2022-02-09,MRT,AF,Mauritania,21.00681,-10.947098,350777199,4975190,,,,,False,False,MR
2022-02-09,MUS,AF,Mauritius,-15.422486,60.006449,350777199,4975190,,,,,False,False,MU
2022-02-09,MYT,AF,Mayotte,-12.824511,45.165455,350777199,4975190,,,,,False,False,
2022-02-09,MEX,NA,Mexico,23.624813,-102.57867,350777199,4975190,,,,,False,False,MX
2022-02-09,MDA,EU,Moldova,46.979527,28.377195,477419,10866,423937,42616,,,False,False,MD
2022-02-09,MCO,EU,Monaco,43.738348,7.424451,350777199,4975190,,,,,False,False,MC
2022-02-09,MNG,AS,Mongolia,46.860945,103.836986,350777199,4975190,,,,,False,False,MN
2022-02-10,MNE,EU,Montenegro,42.710152,19.410069,225253,2624,,,0,,False,True,ME
2022-02-09,MSR,NA,Montserrat,16.749415,-62.192741,350777199,4975190,,,,,False,False,MS
2022-02-09,MAR,AF,Morocco,31.792306,-7.080168,350777199,4975190,,,,,False,False,MA
2022-02-09,MOZ,AF,Mozambique,-18.670284,35.530157,350777199,4975190,,,,,False,False,MZ
2022-02-06,MMR,AS,"Myanmar, Union of",19.163916,96.68303,335068952,5088041,0,329980911,0,0,False,False,MM
2022-02-09,NAM,AF,Namibia,-22.965662,18.486165,350777199,4975190,,,,,False,False,NA
2022-02-09,NRU,OC,Nauru,-0.52832,166.922157,350777199,4975190,,,,,False,False,NR
2022-02-09,NPL,AS,Nepal,28.395056,84.127803,350777199,4975190,,,,,False,False,NP
2022-02-10,NLD,EU,Netherlands,52.133057,5.29525,5523342,27496,0,5495846,3581537,0,True,True,NL
2022-02-09,NCL,OC,New Caledonia,-21.123889,165.846901,350777199,4975190,,,,,False,False,NC
2022-02-09,NZL,OC,New Zealand,-40.9006,174.886,350777199,4975190,,,,,False,False,NZ
2022-02-09,NIC,NA,Nicaragua,12.866726,-85.214298,350777199,4975190,,,,,False,False,NI
2022-02-09,NER,AF,Niger,17.611,8.080946,350777199,4975190,,,,,False,False,NE
2022-02-09,NGA,AF,Nigeria,9.084575,8.674252,350777199,4975190,,,,,False,False,NG
2022-02-09,NIU,OC,Niue,-19.051631,-169.86309,350777199,4975190,,,,,False,False,
2022-02-09,MKD,EU,North Macedonia,41.611,21.751417,350777199,4975190,,,,,False,True,MK
2022-02-06,MNP,OC,Northern Mariana Islands,17.331835,145.47577,335068952,5088041,0,329980911,0,0,False,False,MP
2022-02-09,NOR,EU,Norway,64.583013,17.86411,921401,1512,0,919889,8206,1590,False,True,NO
2022-02-09,OMN,AS,Oman,21.516861,55.859291,350777199,4975190,,,,,False,False,OM
2022-02-09,PAK,AS,Pakistan,30.441861,69.359766,350777199,4975190,,,,,False,False,PK
2022-02-09,PLW,OC,Palau,5.63663,132.920475,350777199,4975190,,,,,False,False,PW
2022-02-06,PSE,AS,Palestine,31.881464,34.894978,335068952,5088041,0,329980911,0,0,False,False,PS
2022-02-09,PAN,NA,Panama,8.41771,-80.112777,350777199,4975190,,,,,False,False,PA
2022-02-09,PNG,OC,Papua New Guinea,-6.48825,148.403152,350777199,4975190,,,,,False,False,PG
2022-02-09,PRY,SA,Paraguay,-23.451389,-58.453215,350777199,4975190,,,,,False,False,PY
2022-02-09,PER,SA,Peru,-9.181352,-75.002365,350777199,4975190,,,,,False,False,PE
2022-02-09,PHL,AS,Philippines,12.881958,121.76654,350777199,4975190,,,,,False,False,PH
2022-02-10,POL,EU,Poland,51.92275,19.136875,5296386,107466,4451403,737517,,,True,True,PL
2022-02-09,PRT,EU,Portugal,39.553444,-7.839319,350777199,4975190,,,,,True,True,PT
2022-02-09,PRI,NA,Puerto Rico,18.223285,-66.592731,350777199,4975190,,,,,False,False,PR
2022-02-09,QAT,AS,Qatar,25.318833,51.19693,350777199,4975190,,,,,False,False,QA
2022-02-09,REU,AF,Réunion,-21.114533,55.532062,350777199,4975190,,,,,False,False,
2022-02-10,ROU,EU,Romania,45.947125,24.980514,2479587,61231,,,,,True,True,RO
2021-10-15,RUS,EU,Russian Fed.,61.523111,-74.9,7925176,223429,6960024,741723,0,0,False,False,RU
2022-02-09,RWA,AF,Rwanda,-1.94708,29.876376,350777199,4975190,,,,,False,False,RW
2022-02-09,SHN,AF,Saint Helena,-11.953679,-10.029991,350777199,4975190,,,,,False,False,
2022-02-09,KNA,NA,Saint Kitts and Nevis,17.257731,-62.706413,350777199,4975190,,,,,False,False,KN
2022-02-09,LCA,NA,Saint Lucia,13.904011,-60.974176,350777199,4975190,,,,,False,False,LC
2022-02-09,SPM,NA,Saint Pierre and Miquelon,46.966164,-56.336825,350777199,4975190,,,,,False,False,
2022-02-09,VCT,NA,Saint Vincent and the Grenadines,12.980909,-61.287392,350777199,4975190,,,,,False,False,VC
2022-02-06,BLM,NA,Saint-Barthélemy,17.903496,-62.831448,335068952,5088041,0,329980911,0,0,False,False,BL
2022-02-09,WSM,OC,Samoa,-13.736573,-172.10717,350777199,4975190,,,,,False,False,
2022-02-09,SMR,EU,San Marino,43.942973,12.460035,350777199,4975190,,,,,False,False,SM
2022-02-09,STP,AF,Sao Tome and Principe,0.863044,6.968272,350777199,4975190,,,,,False,False,ST
2022-02-09,SAU,AS,Saudi Arabia,23.886291,45.081139,350777199,4975190,,,,,False,False,SA
2022-02-09,SEN,AF,Senegal,14.499454,-14.445562,350777199,4975190,,,,,False,False,SN
2022-02-09,SRB,EU,Serbia,44.206802,20.911009,350777199,4975190,,,,,False,True,RS
2022-02-09,SYC,AF,Seychelles,-7.018792,51.242138,350777199,4975190,,,,,False,False,SC
2022-02-09,SLE,AF,Sierra Leone,8.464806,-11.795935,350777199,4975190,,,,,False,False,SL
2022-02-09,SGP,AS,Singapore,1.364917,103.822872,350777199,4975190,,,,,False,False,SG
2022-02-06,SXM,NA,Sint Maarten (Dutch part),18.04097,-63.078516,335068952,5088041,0,329980911,0,0,False,False,SX
2022-02-09,SVK,EU,Slovakia,48.665639,19.709097,1146260,17995,,,2178,297,True,True,SK
2022-01-23,SVN,EU,Slovenia,46.145528,14.974541,611697,6264,11292,594141,636,135,True,True,SI
2022-02-09,SLB,OC,Solomon Islands,-9.220083,161.244735,350777199,4975190,,,,,False,False,SB
2022-02-09,SOM,AF,Somalia,5.152149,46.199616,350777199,4975190,,,,,False,False,SO
2022-02-09,ZAF,AF,South Africa,-28.48322,24.676997,350777199,4975190,,,,,False,False,ZA
2022-02-06,KOR,AS,South Korea,35.901696,127.735889,335068952,5088041,0,329980911,0,0,False,False,KR
2022-02-09,SSD,AF,South Sudan,7.856272,30.040413,350777199,4975190,,,,,False,False,SS
2022-02-08,ESP,EU,Spain,39.896027,-2.487694,10439302,6437216,,,15206,1768,True,True,ES
2022-02-09,LKA,AS,Sri Lanka,7.874097,80.767098,350777199,4975190,,,,,False,False,LK
2022-02-09,SDN,AF,Sudan,15.45847,30.217636,350777199,4975190,,,,,False,False,SD
2022-02-09,SUR,SA,Suriname,3.917846,-56.032028,350777199,4975190,,,,,False,False,SR
2022-01-25,SWE,EU,Sweden,62.199806,17.637493,3946970,15768,,,,8527,True,True,SE
2022-02-10,CHE,EU,Switzerland,46.815514,8.224472,2467707,12971,273887,2180849,2574,231,False,False,CH
2022-02-09,SYR,AS,Syrian Arab Republic,34.814902,39.056126,350777199,4975190,,,,,False,False,SY
2022-02-06,TWN,AS,Taiwan,21.901806,121.471,335068952,5088041,0,329980911,0,0,False,False,TW
2022-02-09,TJK,AS,Tajikistan,38.858194,71.26218,350777199,4975190,,,,,False,False,TJ
2022-02-06,TZA,AF,Tanzania,-6.368216,34.885195,335068952,5088041,0,329980911,0,0,False,False,TZ
2022-02-09,THA,AS,Thailand,13.036597,101.492515,350777199,4975190,,,,,False,False,TH
2022-02-09,TGO,AF,Togo,8.621697,0.829685,350777199,4975190,,,,,False,False,TG
2022-02-09,TKL,OC,Tokelau,-8.967362,-171.855881,350777199,4975190,,,,,False,False,
2022-02-09,TON,OC,Tonga,-18.509023,-174.794922,350777199,4975190,,,,,False,False,
2022-02-09,TTO,NA,Trinidad and Tobago,10.687223,-61.220852,350777199,4975190,,,,,False,False,TT
2022-02-09,TUN,AF,Tunisia,33.892166,9.561556,350777199,4975190,,,,,False,False,TN
2022-02-09,TUR,AS,Turkey,38.961516,35.25175,350777199,4975190,,,,,False,True,TR
2022-02-09,TKM,AS,Turkmenistan,38.968319,59.562873,350777199,4975190,,,,,False,False,TM
2022-02-09,TCA,NA,Turks and Caicos Islands,21.692252,-71.803756,350777199,4975190,,,,,False,False,TC
2022-02-09,TUV,OC,Tuvalu,-8.221571,177.964073,350777199,4975190,,,,,False,False,TV
2022-02-09,UGA,AF,Uganda,1.365188,32.304651,350777199,4975190,,,,,False,False,UG
2021-11-18,UKR,EU,Ukraine,48.379888,31.168139,3284008,79506,2704217,500285,,,False,False,UA
2022-02-09,ARE,AS,United Arab Emirates,24.358745,53.982494,350777199,4975190,,,,,False,False,AE
2022-01-19,GBR,EU,United Kingdom,54.633221,-3.432277,16581351,152872,0,16428479,,,False,True,UK
2022-02-09,USA,NA,United States of America,36.966428,-95.844032,350777199,4975190,,,,,False,False,US
2022-02-09,VIR,NA,United States Virgin Islands,18.036736,-64.801704,350777199,4975190,,,,,False,False,VI
2022-02-09,URY,SA,Uruguay,-32.53152,-55.758328,350777199,4975190,,,,,False,False,UY
2022-02-09,UZB,AS,Uzbekistan,41.379722,64.564459,350777199,4975190,,,,,False,False,UZ
2022-02-09,VUT,OC,Vanuatu,-16.661195,168.214882,350777199,4975190,,,,,False,False,VU
2022-02-06,VEN,SA,Venezuela,6.414107,-66.578926,335068952,5088041,0,329980911,0,0,False,False,VE
2022-02-06,VNM,AS,Vietnam,15.974222,105.806431,335068952,5088041,0,329980911,0,0,False,False,VN
2022-02-06,ESH,AF,Western Sahara,24.221916,-12.886729,335068952,5088041,0,329980911,0,0,False,False,EH
2022-02-06,WWW,WW,Whole Globe,0,0,335068952,5088041,0,329980911,0,0,False,False,
2022-02-09,YEM,AS,Yemen,15.555545,48.531539,350777199,4975190,,,,,False,False,YE
2022-02-09,ZMB,AF,Zambia,-13.151917,27.852537,350777199,4975190,,,,,False,False,ZM
2022-02-09,ZWE,AF,Zimbabwe,-19.013286,29.146667,350777199,4975190,,,,,False,False,ZW
