Date,iso3,CountryName,lat,lon,CumulativePositive,CumulativeDeceased,CumulativeRecovered,CurrentlyPositive,Hospitalized,IntensiveCare,EUcountry,EUCPMcountry,NUTS
2022-06-06,AFG,Afghanistan,33.930445,67.678945,461480930,5775835,,,,,False,False,AF
2022-06-05,ALB,Albania,41.156986,20.181222,276401,3497,272605,299,5,0,False,False,AL
2022-06-06,DZA,Algeria,28.026875,1.65284,461480930,5775835,,,,,False,False,DZ
2022-06-06,ASM,American Samoa,-12.716089,-170.253983,461480930,5775835,,,,,False,False,
2022-05-25,AND,Andorra,42.542268,1.596865,42894,153,,,2,,False,False,AD
2022-06-06,AGO,Angola,-11.209451,17.880669,461480930,5775835,,,,,False,False,AO
2022-06-06,AIA,Anguilla,18.225119,-63.07213,461480930,5775835,,,,,False,False,AI
2022-06-06,ATG,Antigua and Barbuda,17.363183,-61.789423,461480930,5775835,,,,,False,False,AG
2022-06-06,ARG,Argentina,-38.421295,-63.587403,461480930,5775835,,,,,False,False,AR
2022-06-06,ARM,Armenia,40.066181,45.111108,461480930,5775835,,,,,False,False,AM
2022-06-06,ABW,Aruba,12.517713,-69.965112,461480930,5775835,,,,,False,False,AW
2022-06-06,AUS,Australia,-26.853388,133.275154,461480930,5775835,,,,,False,False,AU
2022-06-05,AUT,Austria,47.697542,13.349319,4306509,19950,4258932,27627,416,40,True,True,AT
2022-06-06,AZE,Azerbaijan,40.147396,47.572098,461480930,5775835,,,,,False,False,AZ
2022-06-06,BHS,Bahamas,24.885993,-76.709892,461480930,5775835,,,,,False,False,BS
2022-06-06,BHR,Bahrain,26.039722,50.559306,461480930,5775835,,,,,False,False,BH
2022-06-06,BGD,Bangladesh,23.68764,90.351002,461480930,5775835,,,,,False,False,BD
2022-06-06,BRB,Barbados,13.18355,-59.534649,461480930,5775835,,,,,False,False,BB
2022-03-31,BLR,Belarus,53.711111,27.973847,962707,6819,,,,,False,False,BY
2022-06-02,BEL,Belgium,50.499527,4.475402,4158754,31768,,,883,76,True,True,BE
2022-06-06,BLZ,Belize,17.192929,-88.5009,461480930,5775835,,,,,False,False,BZ
2022-06-06,BEN,Benin,9.322048,2.313138,461480930,5775835,,,,,False,False,BJ
2022-06-06,BMU,Bermuda,32.320236,-64.774022,461480930,5775835,,,,,False,False,BM
2022-06-06,BTN,Bhutan,27.515709,90.442455,461480930,5775835,,,,,False,False,BT
2022-05-29,BOL,Bolivia,-16.28835,-63.549429,457406992,5499286,0,451907706,0,0,False,False,BO
2022-05-29,BES,"Bonaire, Saint Eustatius and Saba",12.160842,-68.304383,457406992,5499286,0,451907706,0,0,False,False,BQ
2022-01-05,BIH,Bosnia and Herzegovina,43.892652,17.670584,295240,13547,,,,,False,False,BA
2022-06-06,BWA,Botswana,-22.344029,24.680158,461480930,5775835,,,,,False,False,BW
2022-06-06,BRA,Brazil,-14.242915,-53.189267,461480930,5775835,,,,,False,False,BR
2022-06-06,VGB,British Virgin Islands,18.573601,-64.492065,461480930,5775835,,,,,False,False,VG
2022-05-29,BRN,Brunei,4.525125,114.715443,457406992,5499286,0,451907706,0,0,False,False,BN
2022-06-06,BGR,Bulgaria,42.729862,25.491667,461480930,5775835,,,,,True,True,BG
2022-06-06,BFA,Burkina Faso,12.24185,-1.55676,461480930,5775835,,,,,False,False,BF
2022-06-06,BDI,Burundi,-3.387918,29.920395,461480930,5775835,,,,,False,False,BI
2022-06-06,CPV,Cabo Verde,16.0026,-24.014095,461480930,5775835,,,,,False,False,CV
2022-06-06,KHM,Cambodia,12.54775,104.98386,461480930,5775835,,,,,False,False,KH
2022-06-06,CMR,Cameroon,7.365302,12.343439,461480930,5775835,,,,,False,False,CM
2022-06-06,CAN,Canada,62.393303,-96.818145,461480930,5775835,,,,,False,False,CA
2022-06-06,CYM,Cayman Islands,19.512365,-80.580025,461480930,5775835,,,,,False,False,KY
2022-06-06,CAF,Central African Republic,6.614041,20.941759,461480930,5775835,,,,,False,False,CF
2022-06-06,TCD,Chad,15.445718,18.738068,461480930,5775835,,,,,False,False,TD
2022-06-06,CHL,Chile,-36.711951,-73.601704,461480930,5775835,,,,,False,False,CL
2022-06-06,CHN,China,34.668138,104.165802,461480930,5775835,,,,,False,False,CN
2022-06-06,COL,Colombia,4.577317,-74.298973,461480930,5775835,,,,,False,False,CO
2022-06-06,COM,Comoros,-11.875119,43.877007,461480930,5775835,,,,,False,False,KM
2022-05-29,COD,"Congo, Democratic Republic of the",-4.034788,21.755028,457406992,5499286,0,451907706,0,0,False,False,CD
2022-05-29,COG,"Congo, Rep. Of",-0.662071,14.927424,457406992,5499286,0,451907706,0,0,False,False,CG
2022-06-06,COK,Cook Islands,-15.983639,-159.202896,461480930,5775835,,,,,False,False,
2022-06-06,CRI,Costa Rica,9.624897,-84.253308,461480930,5775835,,,,,False,False,CR
2022-05-29,CIV,Cote d'Ivoire,7.546855,-5.547099,457406992,5499286,0,451907706,0,0,False,False,CI
2022-06-06,HRV,Croatia,44.48732,16.460306,461480930,5775835,,,,,True,True,HR
2022-06-06,CUB,Cuba,21.527062,-79.544601,461480930,5775835,,,,,False,False,CU
2022-06-06,CUW,Curaçao,12.209208,-68.945576,461480930,5775835,,,,,False,False,CW
2022-02-06,CYP,Cyprus,35.167406,33.435499,282403,852,235162,46389,3282,,True,True,CY
2021-12-19,CZE,Czech Republic,49.800901,15.478153,2406989,35288,2173844,197857,,,True,True,CZ
2021-11-30,DNK,Denmark,56.155403,11.617223,483253,2883,0,480370,446,0,True,True,DK
2022-06-06,DJI,Djibouti,11.808375,42.595222,461480930,5775835,,,,,False,False,DJ
2022-06-06,DMA,Dominica,15.416749,-61.36413,461480930,5775835,,,,,False,False,DM
2022-06-06,DOM,Dominican Republic,18.736509,-70.161744,461480930,5775835,,,,,False,False,DO
2022-05-29,TLS,East Timor,-8.79973,125.677345,457406992,5499286,0,451907706,0,0,False,False,TL
2022-06-06,ECU,Ecuador,-1.779901,-78.131592,461480930,5775835,,,,,False,False,EC
2022-06-06,EGY,Egypt,26.696362,30.246486,461480930,5775835,,,,,False,False,EG
2022-06-06,SLV,El Salvador,13.796873,-88.910412,461480930,5775835,,,,,False,False,SV
2022-06-06,GNQ,Equatorial Guinea,1.633925,10.341295,461480930,5775835,,,,,False,False,GQ
2022-06-06,ERI,Eritrea,15.18132,39.786709,461480930,5775835,,,,,False,False,ER
2022-06-01,EST,Estonia,58.596209,25.023778,577180,,,,,,True,True,EE
2022-06-06,ETH,Ethiopia,9.148086,40.493059,461480930,5775835,,,,,False,False,ET
2022-05-29,FRO,Faeroe Islands,61.897846,-6.928791,457406992,5499286,0,451907706,0,0,False,False,
2022-06-06,FLK,Falkland Islands (Malvinas),-51.800581,-59.528839,461480930,5775835,,,,,False,False,FK
2022-06-06,FJI,Fiji,-16.578041,178.416339,461480930,5775835,,,,,False,False,FJ
2022-06-06,FIN,Finland,64.952416,26.068944,1105213,846,0,1104367,,,True,True,FI
2022-06-06,FRA,France,46.232193,2.209667,461480930,5775835,,,,,True,True,FR
2022-06-06,GUF,French Guiana,3.951795,-53.07823,461480930,5775835,,,,,False,False,
2022-06-06,PYF,French Polynesia,-17.778572,-143.903496,461480930,5775835,,,,,False,False,PF
2022-06-06,GAB,Gabon,-0.828097,11.598909,461480930,5775835,,,,,False,False,GA
2022-06-06,GMB,Gambia,13.445411,-15.311436,461480930,5775835,,,,,False,False,GM
2022-06-06,GEO,Georgia,42.319847,43.368055,461480930,5775835,,,,,False,False,GE
2022-06-06,DEU,Germany,51.165706,10.452764,26496613,139386,25624100,733127,,,True,True,DE
2022-06-06,GHA,Ghana,7.955012,-1.03182,461480930,5775835,,,,,False,False,GH
2022-06-06,GIB,Gibraltar,36.132235,-5.352273,461480930,5775835,,,,,False,False,GI
2022-06-06,GRC,Greece,38.275283,23.810343,461480930,5775835,,,,,True,True,EL
2022-06-06,GRL,Greenland,71.702379,-42.177174,461480930,5775835,,,,,False,False,
2022-06-06,GRD,Grenada,12.152588,-61.689557,461480930,5775835,,,,,False,False,GD
2022-06-06,GLP,Guadeloupe,16.192207,-61.272382,461480930,5775835,,,,,False,False,
2022-06-06,GUM,Guam,13.446472,144.786613,461480930,5775835,,,,,False,False,GU
2022-06-06,GTM,Guatemala,15.776261,-90.229744,461480930,5775835,,,,,False,False,GT
2022-06-06,GGY,Guernsey,49.575693,-2.42318,461480930,5775835,,,,,False,False,GG
2022-06-06,GIN,Guinea,9.934887,-11.283845,461480930,5775835,,,,,False,False,GN
2022-05-29,GNB,Guinea Bissau,11.802527,-15.177029,457406992,5499286,0,451907706,0,0,False,False,GW
2022-06-06,GUY,Guyana,4.866324,-58.932507,461480930,5775835,,,,,False,False,GY
2022-06-06,HTI,Haiti,19.054426,-73.045971,461480930,5775835,,,,,False,False,HT
2022-06-06,VAT,Holy See,41.903859,12.452041,461480930,5775835,,,,,False,False,
2022-06-06,HND,Honduras,14.746333,-86.253097,461480930,5775835,,,,,False,False,HN
2022-03-10,HUN,Hungary,47.164638,19.508944,1812294,446063,1646037,-279806,2499,117,True,True,HU
2022-06-06,ISL,Iceland,64.963942,-19.021169,461480930,5775835,,,,,False,True,IS
2022-06-06,IND,India,21.125681,82.794998,461480930,5775835,,,,,False,False,IN
2022-06-06,IDN,Indonesia,-2.518722,118.015568,461480930,5775835,,,,,False,False,ID
2022-05-29,IRN,Iran,32.420653,53.682375,457406992,5499286,0,451907706,0,0,False,False,IR
2022-06-06,IRQ,Iraq,33.223737,43.685901,461480930,5775835,,,,,False,False,IQ
2022-06-01,IRL,Ireland,53.41975,-8.240472,1565970,7381,,,39300,2661,True,True,IE
2022-06-06,IMN,Isle of Man,54.23782,-4.555111,461480930,5775835,,,,,False,False,IM
2022-06-06,ISR,Israel,31.418388,35.073541,461480930,5775835,,,,,False,False,IL
2022-03-29,ITA,Italy,41.873987,12.564167,14496579,159054,13070647,1266878,10227,487,True,True,IT
2022-06-06,JAM,Jamaica,18.115265,-77.27348,461480930,5775835,,,,,False,False,JM
2022-06-06,JPN,Japan,34.886306,134.379711,461480930,5775835,,,,,False,False,JP
2022-06-06,JEY,Jersey,49.217445,-2.141056,461480930,5775835,,,,,False,False,JE
2022-06-06,JOR,Jordan,31.276778,37.130583,461480930,5775835,,,,,False,False,JO
2022-06-06,KAZ,Kazakhstan,48.193764,66.902264,461480930,5775835,,,,,False,False,KZ
2022-06-06,KEN,Kenya,0.170945,37.903969,461480930,5775835,,,,,False,False,KE
2022-06-06,KIR,Kiribati,-3.358734,9.670395,461480930,5775835,,,,,False,False,
2022-05-29,XKX,Kosovo,41.85637,21.803351,457406992,5499286,0,451907706,0,0,False,False,XK
2022-06-06,KWT,Kuwait,29.310278,47.493515,461480930,5775835,,,,,False,False,KW
2022-06-06,KGZ,Kyrgyzstan,41.205528,74.779888,461480930,5775835,,,,,False,False,KG
2022-05-29,LAO,Laos,18.205208,103.895043,457406992,5499286,0,451907706,0,0,False,False,LA
2022-06-06,LVA,Latvia,56.875584,24.607722,829425,5830,,,,,True,True,LV
2022-06-06,LBN,Lebanon,33.872639,35.876736,461480930,5775835,,,,,False,False,LB
2022-06-06,LSO,Lesotho,-29.620511,28.247414,461480930,5775835,,,,,False,False,LS
2022-06-06,LBR,Liberia,6.452424,-9.428598,461480930,5775835,,,,,False,False,LR
2022-06-06,LBY,Libya,26.338522,17.268816,461480930,5775835,,,,,False,False,LY
2022-06-06,LIE,Liechtenstein,47.164696,9.555,461480930,5775835,,,,,False,False,LI
2022-06-05,LTU,Lithuania,55.174112,23.906736,1063106,9148,1036811,17147,,,True,True,LT
2022-06-02,LUX,Luxembourg,49.815764,6.131514,249319,1079,,,,,True,True,LU
2022-06-06,MDG,Madagascar,-18.777192,46.854328,461480930,5775835,,,,,False,False,MG
2022-06-06,MWI,Malawi,-13.24627,34.295385,461480930,5775835,,,,,False,False,MW
2022-06-06,MYS,Malaysia,4.109319,109.455475,461480930,5775835,,,,,False,False,MY
2022-06-06,MDV,Maldives,3.202833,73.165249,461480930,5775835,,,,,False,False,MV
2022-06-06,MLI,Mali,17.579757,-3.998823,461480930,5775835,,,,,False,False,ML
2022-06-06,MLT,Malta,35.946151,14.384612,95272,723,92759,1790,,,True,True,MT
2022-06-06,MHL,Marshall Islands,10.10382,168.728363,461480930,5775835,,,,,False,False,
2022-06-06,MTQ,Martinique,14.635541,-61.022814,461480930,5775835,,,,,False,False,
2022-06-06,MRT,Mauritania,21.00681,-10.947098,461480930,5775835,,,,,False,False,MR
2022-06-06,MUS,Mauritius,-15.422486,60.006449,461480930,5775835,,,,,False,False,MU
2022-06-06,MYT,Mayotte,-12.824511,45.165455,461480930,5775835,,,,,False,False,
2022-06-06,MEX,Mexico,23.624813,-102.57867,461480930,5775835,,,,,False,False,MX
2022-04-20,MDA,Moldova,46.979527,28.377195,516864,11487,504008,1369,,,False,False,MD
2022-06-06,MCO,Monaco,43.738348,7.424451,461480930,5775835,,,,,False,False,MC
2022-06-06,MNG,Mongolia,46.860945,103.836986,461480930,5775835,,,,,False,False,MN
2022-06-06,MNE,Montenegro,42.710152,19.410069,237563,2720,,,0,,False,True,ME
2022-06-06,MSR,Montserrat,16.749415,-62.192741,461480930,5775835,,,,,False,False,MS
2022-06-06,MAR,Morocco,31.792306,-7.080168,461480930,5775835,,,,,False,False,MA
2022-06-06,MOZ,Mozambique,-18.670284,35.530157,461480930,5775835,,,,,False,False,MZ
2022-05-29,MMR,"Myanmar, Union of",19.163916,96.68303,457406992,5499286,0,451907706,0,0,False,False,MM
2022-06-06,NAM,Namibia,-22.965662,18.486165,461480930,5775835,,,,,False,False,NA
2022-06-06,NRU,Nauru,-0.52832,166.922157,461480930,5775835,,,,,False,False,NR
2022-06-06,NPL,Nepal,28.395056,84.127803,461480930,5775835,,,,,False,False,NP
2022-06-06,NLD,Netherlands,52.133057,5.29525,461480930,5775835,,,,,True,True,NL
2022-06-06,NCL,New Caledonia,-21.123889,165.846901,461480930,5775835,,,,,False,False,NC
2022-06-06,NZL,New Zealand,-40.9006,174.886,461480930,5775835,,,,,False,False,NZ
2022-06-06,NIC,Nicaragua,12.866726,-85.214298,461480930,5775835,,,,,False,False,NI
2022-06-06,NER,Niger,17.611,8.080946,461480930,5775835,,,,,False,False,NE
2022-06-06,NGA,Nigeria,9.084575,8.674252,461480930,5775835,,,,,False,False,NG
2022-06-06,NIU,Niue,-19.051631,-169.86309,461480930,5775835,,,,,False,False,
2022-06-06,MKD,North Macedonia,41.611,21.751417,461480930,5775835,,,,,False,True,MK
2022-05-29,MNP,Northern Mariana Islands,17.331835,145.47577,457406992,5499286,0,451907706,0,0,False,False,MP
2022-06-06,NOR,Norway,64.583013,17.86411,1413636,3172,0,1410464,12592,1986,False,True,NO
2022-06-06,OMN,Oman,21.516861,55.859291,461480930,5775835,,,,,False,False,OM
2022-06-06,PAK,Pakistan,30.441861,69.359766,461480930,5775835,,,,,False,False,PK
2022-06-06,PLW,Palau,5.63663,132.920475,461480930,5775835,,,,,False,False,PW
2022-05-29,PSE,Palestine,31.881464,34.894978,457406992,5499286,0,451907706,0,0,False,False,PS
2022-06-06,PAN,Panama,8.41771,-80.112777,461480930,5775835,,,,,False,False,PA
2022-06-06,PNG,Papua New Guinea,-6.48825,148.403152,461480930,5775835,,,,,False,False,PG
2022-06-06,PRY,Paraguay,-23.451389,-58.453215,461480930,5775835,,,,,False,False,PY
2022-06-06,PER,Peru,-9.181352,-75.002365,461480930,5775835,,,,,False,False,PE
2022-06-06,PHL,Philippines,12.881958,121.76654,461480930,5775835,,,,,False,False,PH
2022-06-06,POL,Poland,51.92275,19.136875,5919990,116349,5335511,468130,,,True,True,PL
2022-06-06,PRT,Portugal,39.553444,-7.839319,461480930,5775835,,,,,True,True,PT
2022-06-06,PRI,Puerto Rico,18.223285,-66.592731,461480930,5775835,,,,,False,False,PR
2022-06-06,QAT,Qatar,25.318833,51.19693,461480930,5775835,,,,,False,False,QA
2022-06-06,REU,Réunion,-21.114533,55.532062,461480930,5775835,,,,,False,False,
2022-03-08,ROU,Romania,45.947125,24.980514,2770538,64094,,,,,True,True,RO
2022-06-06,RUS,Russian Fed.,61.523111,-74.9,461480930,5775835,,,,,False,False,RU
2022-06-06,RWA,Rwanda,-1.94708,29.876376,461480930,5775835,,,,,False,False,RW
2022-06-06,SHN,Saint Helena,-11.953679,-10.029991,461480930,5775835,,,,,False,False,
2022-06-06,KNA,Saint Kitts and Nevis,17.257731,-62.706413,461480930,5775835,,,,,False,False,KN
2022-06-06,LCA,Saint Lucia,13.904011,-60.974176,461480930,5775835,,,,,False,False,LC
2022-06-06,SPM,Saint Pierre and Miquelon,46.966164,-56.336825,461480930,5775835,,,,,False,False,
2022-06-06,VCT,Saint Vincent and the Grenadines,12.980909,-61.287392,461480930,5775835,,,,,False,False,VC
2022-05-29,BLM,Saint-Barthélemy,17.903496,-62.831448,457406992,5499286,0,451907706,0,0,False,False,BL
2022-06-06,WSM,Samoa,-13.736573,-172.10717,461480930,5775835,,,,,False,False,
2022-06-06,SMR,San Marino,43.942973,12.460035,461480930,5775835,,,,,False,False,SM
2022-06-06,STP,Sao Tome and Principe,0.863044,6.968272,461480930,5775835,,,,,False,False,ST
2022-06-06,SAU,Saudi Arabia,23.886291,45.081139,461480930,5775835,,,,,False,False,SA
2022-06-06,SEN,Senegal,14.499454,-14.445562,461480930,5775835,,,,,False,False,SN
2022-06-06,SRB,Serbia,44.206802,20.911009,461480930,5775835,,,,,False,True,RS
2022-06-06,SYC,Seychelles,-7.018792,51.242138,461480930,5775835,,,,,False,False,SC
2022-06-06,SLE,Sierra Leone,8.464806,-11.795935,461480930,5775835,,,,,False,False,SL
2022-06-06,SGP,Singapore,1.364917,103.822872,461480930,5775835,,,,,False,False,SG
2022-05-29,SXM,Sint Maarten (Dutch part),18.04097,-63.078516,457406992,5499286,0,451907706,0,0,False,False,SX
2022-02-09,SVK,Slovakia,48.665639,19.709097,1146260,17995,,,2178,297,True,True,SK
2022-01-23,SVN,Slovenia,46.145528,14.974541,611697,6264,11292,594141,636,135,True,True,SI
2022-06-06,SLB,Solomon Islands,-9.220083,161.244735,461480930,5775835,,,,,False,False,SB
2022-06-06,SOM,Somalia,5.152149,46.199616,461480930,5775835,,,,,False,False,SO
2022-06-06,ZAF,South Africa,-28.48322,24.676997,461480930,5775835,,,,,False,False,ZA
2022-05-29,KOR,South Korea,35.901696,127.735889,457406992,5499286,0,451907706,0,0,False,False,KR
2022-06-06,SSD,South Sudan,7.856272,30.040413,461480930,5775835,,,,,False,False,SS
2022-05-31,ESP,Spain,39.896027,-2.487694,12360256,1184353,,,6817,1425,True,True,ES
2022-06-06,LKA,Sri Lanka,7.874097,80.767098,461480930,5775835,,,,,False,False,LK
2022-06-06,SDN,Sudan,15.45847,30.217636,461480930,5775835,,,,,False,False,SD
2022-06-06,SUR,Suriname,3.917846,-56.032028,461480930,5775835,,,,,False,False,SR
2022-06-01,SWE,Sweden,62.199806,17.637493,2509366,19014,,,,9122,True,True,SE
2022-06-06,CHE,Switzerland,46.815514,8.224472,3503105,13853,377589,3111663,1844,127,False,False,CH
2022-06-06,SYR,Syrian Arab Republic,34.814902,39.056126,461480930,5775835,,,,,False,False,SY
2022-05-29,TWN,Taiwan,21.901806,121.471,457406992,5499286,0,451907706,0,0,False,False,TW
2022-06-06,TJK,Tajikistan,38.858194,71.26218,461480930,5775835,,,,,False,False,TJ
2022-05-29,TZA,Tanzania,-6.368216,34.885195,457406992,5499286,0,451907706,0,0,False,False,TZ
2022-06-06,THA,Thailand,13.036597,101.492515,461480930,5775835,,,,,False,False,TH
2022-06-06,TGO,Togo,8.621697,0.829685,461480930,5775835,,,,,False,False,TG
2022-06-06,TKL,Tokelau,-8.967362,-171.855881,461480930,5775835,,,,,False,False,
2022-06-06,TON,Tonga,-18.509023,-174.794922,461480930,5775835,,,,,False,False,
2022-06-06,TTO,Trinidad and Tobago,10.687223,-61.220852,461480930,5775835,,,,,False,False,TT
2022-06-06,TUN,Tunisia,33.892166,9.561556,461480930,5775835,,,,,False,False,TN
2022-06-06,TUR,Turkey,38.961516,35.25175,461480930,5775835,,,,,False,True,TR
2022-06-06,TKM,Turkmenistan,38.968319,59.562873,461480930,5775835,,,,,False,False,TM
2022-06-06,TCA,Turks and Caicos Islands,21.692252,-71.803756,461480930,5775835,,,,,False,False,TC
2022-06-06,TUV,Tuvalu,-8.221571,177.964073,461480930,5775835,,,,,False,False,TV
2022-06-06,UGA,Uganda,1.365188,32.304651,461480930,5775835,,,,,False,False,UG
2022-06-06,UKR,Ukraine,48.379888,31.168139,461480930,5775835,,,,,False,False,UA
2022-06-06,ARE,United Arab Emirates,24.358745,53.982494,461480930,5775835,,,,,False,False,AE
2022-05-19,GBR,United Kingdom,54.633221,-3.432277,23155433,177890,0,22977543,,,False,True,UK
2022-06-06,USA,United States of America,36.966428,-95.844032,461480930,5775835,,,,,False,False,US
2022-06-06,VIR,United States Virgin Islands,18.036736,-64.801704,461480930,5775835,,,,,False,False,VI
2022-06-06,URY,Uruguay,-32.53152,-55.758328,461480930,5775835,,,,,False,False,UY
2022-06-06,UZB,Uzbekistan,41.379722,64.564459,461480930,5775835,,,,,False,False,UZ
2022-06-06,VUT,Vanuatu,-16.661195,168.214882,461480930,5775835,,,,,False,False,VU
2022-05-29,VEN,Venezuela,6.414107,-66.578926,457406992,5499286,0,451907706,0,0,False,False,VE
2022-05-29,VNM,Vietnam,15.974222,105.806431,457406992,5499286,0,451907706,0,0,False,False,VN
2022-05-29,ESH,Western Sahara,24.221916,-12.886729,457406992,5499286,0,451907706,0,0,False,False,EH
2022-05-29,WWW,Whole Globe,0,0,457406992,5499286,0,451907706,0,0,False,False,
2022-06-06,YEM,Yemen,15.555545,48.531539,461480930,5775835,,,,,False,False,YE
2022-06-06,ZMB,Zambia,-13.151917,27.852537,461480930,5775835,,,,,False,False,ZM
2022-06-06,ZWE,Zimbabwe,-19.013286,29.146667,461480930,5775835,,,,,False,False,ZW
