Date,iso3,CountryName,lat,lon,CumulativePositive,CumulativeDeceased,CumulativeRecovered,CurrentlyPositive,Hospitalized,IntensiveCare,EUcountry,EUCPMcountry,NUTS
2022-03-15,AFG,Afghanistan,33.930445,67.678945,409168680,5577427,,,,,False,False,AF
2022-03-15,ALB,Albania,41.156986,20.181222,272689,3485,268411,793,41,4,False,False,AL
2022-03-15,DZA,Algeria,28.026875,1.65284,409168680,5577427,,,,,False,False,DZ
2022-03-15,ASM,American Samoa,-12.716089,-170.253983,409168680,5577427,,,,,False,False,
2022-03-09,AND,Andorra,42.542268,1.596865,38794,152,,,10,,False,False,AD
2022-03-15,AGO,Angola,-11.209451,17.880669,409168680,5577427,,,,,False,False,AO
2022-03-15,AIA,Anguilla,18.225119,-63.07213,409168680,5577427,,,,,False,False,AI
2022-03-15,ATG,Antigua and Barbuda,17.363183,-61.789423,409168680,5577427,,,,,False,False,AG
2022-03-15,ARG,Argentina,-38.421295,-63.587403,409168680,5577427,,,,,False,False,AR
2022-03-15,ARM,Armenia,40.066181,45.111108,409168680,5577427,,,,,False,False,AM
2022-03-15,ABW,Aruba,12.517713,-69.965112,409168680,5577427,,,,,False,False,AW
2022-03-15,AUS,Australia,-26.853388,133.275154,409168680,5577427,,,,,False,False,AU
2022-03-14,AUT,Austria,47.697542,13.349319,3256683,14609,2847824,394250,2675,200,True,True,AT
2022-03-15,AZE,Azerbaijan,40.147396,47.572098,409168680,5577427,,,,,False,False,AZ
2022-03-15,BHS,Bahamas,24.885993,-76.709892,409168680,5577427,,,,,False,False,BS
2022-03-15,BHR,Bahrain,26.039722,50.559306,409168680,5577427,,,,,False,False,BH
2022-03-15,BGD,Bangladesh,23.68764,90.351002,409168680,5577427,,,,,False,False,BD
2022-03-15,BRB,Barbados,13.18355,-59.534649,409168680,5577427,,,,,False,False,BB
2022-03-15,BLR,Belarus,53.711111,27.973847,943027,6681,,,,,False,False,BY
2022-03-14,BEL,Belgium,50.499527,4.475402,3658084,30445,,,2100,173,True,True,BE
2022-03-15,BLZ,Belize,17.192929,-88.5009,409168680,5577427,,,,,False,False,BZ
2022-03-15,BEN,Benin,9.322048,2.313138,409168680,5577427,,,,,False,False,BJ
2022-03-15,BMU,Bermuda,32.320236,-64.774022,409168680,5577427,,,,,False,False,BM
2022-03-15,BTN,Bhutan,27.515709,90.442455,409168680,5577427,,,,,False,False,BT
2022-03-06,BOL,Bolivia,-16.28835,-63.549429,381044514,5279243,0,375765271,0,0,False,False,BO
2022-03-06,BES,"Bonaire, Saint Eustatius and Saba",12.160842,-68.304383,381044514,5279243,0,375765271,0,0,False,False,BQ
2022-01-05,BIH,Bosnia and Herzegovina,43.892652,17.670584,295240,13547,,,,,False,False,BA
2022-03-15,BWA,Botswana,-22.344029,24.680158,409168680,5577427,,,,,False,False,BW
2022-03-15,BRA,Brazil,-14.242915,-53.189267,409168680,5577427,,,,,False,False,BR
2022-03-15,VGB,British Virgin Islands,18.573601,-64.492065,409168680,5577427,,,,,False,False,VG
2022-03-06,BRN,Brunei,4.525125,114.715443,381044514,5279243,0,375765271,0,0,False,False,BN
2022-03-15,BGR,Bulgaria,42.729862,25.491667,409168680,5577427,,,,,True,True,BG
2022-03-15,BFA,Burkina Faso,12.24185,-1.55676,409168680,5577427,,,,,False,False,BF
2022-03-15,BDI,Burundi,-3.387918,29.920395,409168680,5577427,,,,,False,False,BI
2022-03-15,CPV,Cabo Verde,16.0026,-24.014095,409168680,5577427,,,,,False,False,CV
2022-03-15,KHM,Cambodia,12.54775,104.98386,409168680,5577427,,,,,False,False,KH
2022-03-15,CMR,Cameroon,7.365302,12.343439,409168680,5577427,,,,,False,False,CM
2022-03-15,CAN,Canada,62.393303,-96.818145,409168680,5577427,,,,,False,False,CA
2022-03-15,CYM,Cayman Islands,19.512365,-80.580025,409168680,5577427,,,,,False,False,KY
2022-03-15,CAF,Central African Republic,6.614041,20.941759,409168680,5577427,,,,,False,False,CF
2022-03-15,TCD,Chad,15.445718,18.738068,409168680,5577427,,,,,False,False,TD
2022-03-15,CHL,Chile,-36.711951,-73.601704,409168680,5577427,,,,,False,False,CL
2022-03-15,CHN,China,34.668138,104.165802,409168680,5577427,,,,,False,False,CN
2022-03-15,COL,Colombia,4.577317,-74.298973,409168680,5577427,,,,,False,False,CO
2022-03-15,COM,Comoros,-11.875119,43.877007,409168680,5577427,,,,,False,False,KM
2022-03-06,COD,"Congo, Democratic Republic of the",-4.034788,21.755028,381044514,5279243,0,375765271,0,0,False,False,CD
2022-03-06,COG,"Congo, Rep. Of",-0.662071,14.927424,381044514,5279243,0,375765271,0,0,False,False,CG
2022-03-15,COK,Cook Islands,-15.983639,-159.202896,409168680,5577427,,,,,False,False,
2022-03-15,CRI,Costa Rica,9.624897,-84.253308,409168680,5577427,,,,,False,False,CR
2022-03-06,CIV,Cote d'Ivoire,7.546855,-5.547099,381044514,5279243,0,375765271,0,0,False,False,CI
2022-03-15,HRV,Croatia,44.48732,16.460306,409168680,5577427,,,,,True,True,HR
2022-03-15,CUB,Cuba,21.527062,-79.544601,409168680,5577427,,,,,False,False,CU
2022-03-15,CUW,Curaçao,12.209208,-68.945576,409168680,5577427,,,,,False,False,CW
2022-02-06,CYP,Cyprus,35.167406,33.435499,282403,852,235162,46389,3282,,True,True,CY
2021-12-19,CZE,Czech Republic,49.800901,15.478153,2406989,35288,2173844,197857,,,True,True,CZ
2021-11-30,DNK,Denmark,56.155403,11.617223,483253,2883,0,480370,446,0,True,True,DK
2022-03-15,DJI,Djibouti,11.808375,42.595222,409168680,5577427,,,,,False,False,DJ
2022-03-15,DMA,Dominica,15.416749,-61.36413,409168680,5577427,,,,,False,False,DM
2022-03-15,DOM,Dominican Republic,18.736509,-70.161744,409168680,5577427,,,,,False,False,DO
2022-03-06,TLS,East Timor,-8.79973,125.677345,381044514,5279243,0,375765271,0,0,False,False,TL
2022-03-15,ECU,Ecuador,-1.779901,-78.131592,409168680,5577427,,,,,False,False,EC
2022-03-15,EGY,Egypt,26.696362,30.246486,409168680,5577427,,,,,False,False,EG
2022-03-15,SLV,El Salvador,13.796873,-88.910412,409168680,5577427,,,,,False,False,SV
2022-03-15,GNQ,Equatorial Guinea,1.633925,10.341295,409168680,5577427,,,,,False,False,GQ
2022-03-15,ERI,Eritrea,15.18132,39.786709,409168680,5577427,,,,,False,False,ER
2022-03-15,EST,Estonia,58.596209,25.023778,534788,,,,,,True,True,EE
2022-03-15,ETH,Ethiopia,9.148086,40.493059,409168680,5577427,,,,,False,False,ET
2022-03-06,FRO,Faeroe Islands,61.897846,-6.928791,381044514,5279243,0,375765271,0,0,False,False,
2022-03-15,FLK,Falkland Islands (Malvinas),-51.800581,-59.528839,409168680,5577427,,,,,False,False,FK
2022-03-15,FJI,Fiji,-16.578041,178.416339,409168680,5577427,,,,,False,False,FJ
2022-03-15,FIN,Finland,64.952416,26.068944,767222,846,0,766376,,,True,True,FI
2022-03-15,FRA,France,46.232193,2.209667,409168680,5577427,,,,,True,True,FR
2022-03-15,GUF,French Guiana,3.951795,-53.07823,409168680,5577427,,,,,False,False,
2022-03-15,PYF,French Polynesia,-17.778572,-143.903496,409168680,5577427,,,,,False,False,PF
2022-03-15,GAB,Gabon,-0.828097,11.598909,409168680,5577427,,,,,False,False,GA
2022-03-15,GMB,Gambia,13.445411,-15.311436,409168680,5577427,,,,,False,False,GM
2022-03-15,GEO,Georgia,42.319847,43.368055,409168680,5577427,,,,,False,False,GE
2022-03-15,DEU,Germany,51.165706,10.452764,17432619,125873,13714200,3592546,,,True,True,DE
2022-03-15,GHA,Ghana,7.955012,-1.03182,409168680,5577427,,,,,False,False,GH
2022-03-15,GIB,Gibraltar,36.132235,-5.352273,409168680,5577427,,,,,False,False,GI
2022-03-15,GRC,Greece,38.275283,23.810343,409168680,5577427,,,,,True,True,EL
2022-03-15,GRL,Greenland,71.702379,-42.177174,409168680,5577427,,,,,False,False,
2022-03-15,GRD,Grenada,12.152588,-61.689557,409168680,5577427,,,,,False,False,GD
2022-03-15,GLP,Guadeloupe,16.192207,-61.272382,409168680,5577427,,,,,False,False,
2022-03-15,GUM,Guam,13.446472,144.786613,409168680,5577427,,,,,False,False,GU
2022-03-15,GTM,Guatemala,15.776261,-90.229744,409168680,5577427,,,,,False,False,GT
2022-03-15,GGY,Guernsey,49.575693,-2.42318,409168680,5577427,,,,,False,False,GG
2022-03-15,GIN,Guinea,9.934887,-11.283845,409168680,5577427,,,,,False,False,GN
2022-03-06,GNB,Guinea Bissau,11.802527,-15.177029,381044514,5279243,0,375765271,0,0,False,False,GW
2022-03-15,GUY,Guyana,4.866324,-58.932507,409168680,5577427,,,,,False,False,GY
2022-03-15,HTI,Haiti,19.054426,-73.045971,409168680,5577427,,,,,False,False,HT
2022-03-15,VAT,Holy See,41.903859,12.452041,409168680,5577427,,,,,False,False,
2022-03-15,HND,Honduras,14.746333,-86.253097,409168680,5577427,,,,,False,False,HN
2022-03-10,HUN,Hungary,47.164638,19.508944,1812294,446063,1646037,-279806,2499,117,True,True,HU
2022-03-15,ISL,Iceland,64.963942,-19.021169,409168680,5577427,,,,,False,True,IS
2022-03-15,IND,India,21.125681,82.794998,409168680,5577427,,,,,False,False,IN
2022-03-15,IDN,Indonesia,-2.518722,118.015568,409168680,5577427,,,,,False,False,ID
2022-03-06,IRN,Iran,32.420653,53.682375,381044514,5279243,0,375765271,0,0,False,False,IR
2022-03-15,IRQ,Iraq,33.223737,43.685901,409168680,5577427,,,,,False,False,IQ
2022-03-15,IRL,Ireland,53.41975,-8.240472,1360015,6636,,,30870,2534,True,True,IE
2022-03-15,IMN,Isle of Man,54.23782,-4.555111,409168680,5577427,,,,,False,False,IM
2022-03-15,ISR,Israel,31.418388,35.073541,409168680,5577427,,,,,False,False,IL
2022-03-15,ITA,Italy,41.873987,12.564167,13489319,157177,12296018,1036124,8975,502,True,True,IT
2022-03-15,JAM,Jamaica,18.115265,-77.27348,409168680,5577427,,,,,False,False,JM
2022-03-15,JPN,Japan,34.886306,134.379711,409168680,5577427,,,,,False,False,JP
2022-03-15,JEY,Jersey,49.217445,-2.141056,409168680,5577427,,,,,False,False,JE
2022-03-15,JOR,Jordan,31.276778,37.130583,409168680,5577427,,,,,False,False,JO
2022-03-15,KAZ,Kazakhstan,48.193764,66.902264,409168680,5577427,,,,,False,False,KZ
2022-03-15,KEN,Kenya,0.170945,37.903969,409168680,5577427,,,,,False,False,KE
2022-03-15,KIR,Kiribati,-3.358734,9.670395,409168680,5577427,,,,,False,False,
2022-03-06,XKX,Kosovo,41.85637,21.803351,381044514,5279243,0,375765271,0,0,False,False,XK
2022-03-15,KWT,Kuwait,29.310278,47.493515,409168680,5577427,,,,,False,False,KW
2022-03-15,KGZ,Kyrgyzstan,41.205528,74.779888,409168680,5577427,,,,,False,False,KG
2022-03-06,LAO,Laos,18.205208,103.895043,381044514,5279243,0,375765271,0,0,False,False,LA
2022-03-15,LVA,Latvia,56.875584,24.607722,750683,5435,,,,,True,True,LV
2022-03-15,LBN,Lebanon,33.872639,35.876736,409168680,5577427,,,,,False,False,LB
2022-03-15,LSO,Lesotho,-29.620511,28.247414,409168680,5577427,,,,,False,False,LS
2022-03-15,LBR,Liberia,6.452424,-9.428598,409168680,5577427,,,,,False,False,LR
2022-03-15,LBY,Libya,26.338522,17.268816,409168680,5577427,,,,,False,False,LY
2022-03-15,LIE,Liechtenstein,47.164696,9.555,409168680,5577427,,,,,False,False,LI
2022-03-14,LTU,Lithuania,55.174112,23.906736,968723,8659,887641,72423,,,True,True,LT
2022-03-14,LUX,Luxembourg,49.815764,6.131514,194846,1007,,,,,True,True,LU
2022-03-15,MDG,Madagascar,-18.777192,46.854328,409168680,5577427,,,,,False,False,MG
2022-03-15,MWI,Malawi,-13.24627,34.295385,409168680,5577427,,,,,False,False,MW
2022-03-15,MYS,Malaysia,4.109319,109.455475,409168680,5577427,,,,,False,False,MY
2022-03-15,MDV,Maldives,3.202833,73.165249,409168680,5577427,,,,,False,False,MV
2022-03-15,MLI,Mali,17.579757,-3.998823,409168680,5577427,,,,,False,False,ML
2022-03-15,MLT,Malta,35.946151,14.384612,73192,617,70652,1923,,,True,True,MT
2022-03-15,MHL,Marshall Islands,10.10382,168.728363,409168680,5577427,,,,,False,False,
2022-03-15,MTQ,Martinique,14.635541,-61.022814,409168680,5577427,,,,,False,False,
2022-03-15,MRT,Mauritania,21.00681,-10.947098,409168680,5577427,,,,,False,False,MR
2022-03-15,MUS,Mauritius,-15.422486,60.006449,409168680,5577427,,,,,False,False,MU
2022-03-15,MYT,Mayotte,-12.824511,45.165455,409168680,5577427,,,,,False,False,
2022-03-15,MEX,Mexico,23.624813,-102.57867,409168680,5577427,,,,,False,False,MX
2022-03-14,MDA,Moldova,46.979527,28.377195,508578,11357,491634,5587,,,False,False,MD
2022-03-15,MCO,Monaco,43.738348,7.424451,409168680,5577427,,,,,False,False,MC
2022-03-15,MNG,Mongolia,46.860945,103.836986,409168680,5577427,,,,,False,False,MN
2022-03-15,MNE,Montenegro,42.710152,19.410069,231719,2695,,,0,,False,True,ME
2022-03-15,MSR,Montserrat,16.749415,-62.192741,409168680,5577427,,,,,False,False,MS
2022-03-15,MAR,Morocco,31.792306,-7.080168,409168680,5577427,,,,,False,False,MA
2022-03-15,MOZ,Mozambique,-18.670284,35.530157,409168680,5577427,,,,,False,False,MZ
2022-03-06,MMR,"Myanmar, Union of",19.163916,96.68303,381044514,5279243,0,375765271,0,0,False,False,MM
2022-03-15,NAM,Namibia,-22.965662,18.486165,409168680,5577427,,,,,False,False,NA
2022-03-15,NRU,Nauru,-0.52832,166.922157,409168680,5577427,,,,,False,False,NR
2022-03-15,NPL,Nepal,28.395056,84.127803,409168680,5577427,,,,,False,False,NP
2022-03-15,NLD,Netherlands,52.133057,5.29525,7266953,27863,0,7239090,3581537,0,True,True,NL
2022-03-15,NCL,New Caledonia,-21.123889,165.846901,409168680,5577427,,,,,False,False,NC
2022-03-15,NZL,New Zealand,-40.9006,174.886,409168680,5577427,,,,,False,False,NZ
2022-03-15,NIC,Nicaragua,12.866726,-85.214298,409168680,5577427,,,,,False,False,NI
2022-03-15,NER,Niger,17.611,8.080946,409168680,5577427,,,,,False,False,NE
2022-03-15,NGA,Nigeria,9.084575,8.674252,409168680,5577427,,,,,False,False,NG
2022-03-15,NIU,Niue,-19.051631,-169.86309,409168680,5577427,,,,,False,False,
2022-03-15,MKD,North Macedonia,41.611,21.751417,409168680,5577427,,,,,False,True,MK
2022-03-06,MNP,Northern Mariana Islands,17.331835,145.47577,381044514,5279243,0,375765271,0,0,False,False,MP
2022-03-10,NOR,Norway,64.583013,17.86411,1314162,1752,0,1312410,10142,1755,False,True,NO
2022-03-15,OMN,Oman,21.516861,55.859291,409168680,5577427,,,,,False,False,OM
2022-03-15,PAK,Pakistan,30.441861,69.359766,409168680,5577427,,,,,False,False,PK
2022-03-15,PLW,Palau,5.63663,132.920475,409168680,5577427,,,,,False,False,PW
2022-03-06,PSE,Palestine,31.881464,34.894978,381044514,5279243,0,375765271,0,0,False,False,PS
2022-03-15,PAN,Panama,8.41771,-80.112777,409168680,5577427,,,,,False,False,PA
2022-03-15,PNG,Papua New Guinea,-6.48825,148.403152,409168680,5577427,,,,,False,False,PG
2022-03-15,PRY,Paraguay,-23.451389,-58.453215,409168680,5577427,,,,,False,False,PY
2022-03-15,PER,Peru,-9.181352,-75.002365,409168680,5577427,,,,,False,False,PE
2022-03-15,PHL,Philippines,12.881958,121.76654,409168680,5577427,,,,,False,False,PH
2022-03-15,POL,Poland,51.92275,19.136875,5765461,113622,5199156,452683,,,True,True,PL
2022-03-15,PRT,Portugal,39.553444,-7.839319,409168680,5577427,,,,,True,True,PT
2022-03-15,PRI,Puerto Rico,18.223285,-66.592731,409168680,5577427,,,,,False,False,PR
2022-03-15,QAT,Qatar,25.318833,51.19693,409168680,5577427,,,,,False,False,QA
2022-03-15,REU,Réunion,-21.114533,55.532062,409168680,5577427,,,,,False,False,
2022-03-08,ROU,Romania,45.947125,24.980514,2770538,64094,,,,,True,True,RO
2022-03-15,RUS,Russian Fed.,61.523111,-74.9,409168680,5577427,,,,,False,False,RU
2022-03-15,RWA,Rwanda,-1.94708,29.876376,409168680,5577427,,,,,False,False,RW
2022-03-15,SHN,Saint Helena,-11.953679,-10.029991,409168680,5577427,,,,,False,False,
2022-03-15,KNA,Saint Kitts and Nevis,17.257731,-62.706413,409168680,5577427,,,,,False,False,KN
2022-03-15,LCA,Saint Lucia,13.904011,-60.974176,409168680,5577427,,,,,False,False,LC
2022-03-15,SPM,Saint Pierre and Miquelon,46.966164,-56.336825,409168680,5577427,,,,,False,False,
2022-03-15,VCT,Saint Vincent and the Grenadines,12.980909,-61.287392,409168680,5577427,,,,,False,False,VC
2022-03-06,BLM,Saint-Barthélemy,17.903496,-62.831448,381044514,5279243,0,375765271,0,0,False,False,BL
2022-03-15,WSM,Samoa,-13.736573,-172.10717,409168680,5577427,,,,,False,False,
2022-03-15,SMR,San Marino,43.942973,12.460035,409168680,5577427,,,,,False,False,SM
2022-03-15,STP,Sao Tome and Principe,0.863044,6.968272,409168680,5577427,,,,,False,False,ST
2022-03-15,SAU,Saudi Arabia,23.886291,45.081139,409168680,5577427,,,,,False,False,SA
2022-03-15,SEN,Senegal,14.499454,-14.445562,409168680,5577427,,,,,False,False,SN
2022-03-15,SRB,Serbia,44.206802,20.911009,409168680,5577427,,,,,False,True,RS
2022-03-15,SYC,Seychelles,-7.018792,51.242138,409168680,5577427,,,,,False,False,SC
2022-03-15,SLE,Sierra Leone,8.464806,-11.795935,409168680,5577427,,,,,False,False,SL
2022-03-15,SGP,Singapore,1.364917,103.822872,409168680,5577427,,,,,False,False,SG
2022-03-06,SXM,Sint Maarten (Dutch part),18.04097,-63.078516,381044514,5279243,0,375765271,0,0,False,False,SX
2022-02-09,SVK,Slovakia,48.665639,19.709097,1146260,17995,,,2178,297,True,True,SK
2022-01-23,SVN,Slovenia,46.145528,14.974541,611697,6264,11292,594141,636,135,True,True,SI
2022-03-15,SLB,Solomon Islands,-9.220083,161.244735,409168680,5577427,,,,,False,False,SB
2022-03-15,SOM,Somalia,5.152149,46.199616,409168680,5577427,,,,,False,False,SO
2022-03-15,ZAF,South Africa,-28.48322,24.676997,409168680,5577427,,,,,False,False,ZA
2022-03-06,KOR,South Korea,35.901696,127.735889,381044514,5279243,0,375765271,0,0,False,False,KR
2022-03-15,SSD,South Sudan,7.856272,30.040413,409168680,5577427,,,,,False,False,SS
2022-03-11,ESP,Spain,39.896027,-2.487694,11223974,2632,,,4777,689,True,True,ES
2022-03-15,LKA,Sri Lanka,7.874097,80.767098,409168680,5577427,,,,,False,False,LK
2022-03-15,SDN,Sudan,15.45847,30.217636,409168680,5577427,,,,,False,False,SD
2022-03-15,SUR,Suriname,3.917846,-56.032028,409168680,5577427,,,,,False,False,SR
2022-03-14,SWE,Sweden,62.199806,17.637493,2470254,17874,,,,8951,True,True,SE
2022-03-15,CHE,Switzerland,46.815514,8.224472,3074092,13343,352876,2707873,2532,193,False,False,CH
2022-03-15,SYR,Syrian Arab Republic,34.814902,39.056126,409168680,5577427,,,,,False,False,SY
2022-03-06,TWN,Taiwan,21.901806,121.471,381044514,5279243,0,375765271,0,0,False,False,TW
2022-03-15,TJK,Tajikistan,38.858194,71.26218,409168680,5577427,,,,,False,False,TJ
2022-03-06,TZA,Tanzania,-6.368216,34.885195,381044514,5279243,0,375765271,0,0,False,False,TZ
2022-03-15,THA,Thailand,13.036597,101.492515,409168680,5577427,,,,,False,False,TH
2022-03-15,TGO,Togo,8.621697,0.829685,409168680,5577427,,,,,False,False,TG
2022-03-15,TKL,Tokelau,-8.967362,-171.855881,409168680,5577427,,,,,False,False,
2022-03-15,TON,Tonga,-18.509023,-174.794922,409168680,5577427,,,,,False,False,
2022-03-15,TTO,Trinidad and Tobago,10.687223,-61.220852,409168680,5577427,,,,,False,False,TT
2022-03-15,TUN,Tunisia,33.892166,9.561556,409168680,5577427,,,,,False,False,TN
2022-03-15,TUR,Turkey,38.961516,35.25175,409168680,5577427,,,,,False,True,TR
2022-03-15,TKM,Turkmenistan,38.968319,59.562873,409168680,5577427,,,,,False,False,TM
2022-03-15,TCA,Turks and Caicos Islands,21.692252,-71.803756,409168680,5577427,,,,,False,False,TC
2022-03-15,TUV,Tuvalu,-8.221571,177.964073,409168680,5577427,,,,,False,False,TV
2022-03-15,UGA,Uganda,1.365188,32.304651,409168680,5577427,,,,,False,False,UG
2022-03-15,UKR,Ukraine,48.379888,31.168139,409168680,5577427,,,,,False,False,UA
2022-03-15,ARE,United Arab Emirates,24.358745,53.982494,409168680,5577427,,,,,False,False,AE
2022-03-14,GBR,United Kingdom,54.633221,-3.432277,20648218,162873,0,20485345,,,False,True,UK
2022-03-15,USA,United States of America,36.966428,-95.844032,409168680,5577427,,,,,False,False,US
2022-03-15,VIR,United States Virgin Islands,18.036736,-64.801704,409168680,5577427,,,,,False,False,VI
2022-03-15,URY,Uruguay,-32.53152,-55.758328,409168680,5577427,,,,,False,False,UY
2022-03-15,UZB,Uzbekistan,41.379722,64.564459,409168680,5577427,,,,,False,False,UZ
2022-03-15,VUT,Vanuatu,-16.661195,168.214882,409168680,5577427,,,,,False,False,VU
2022-03-06,VEN,Venezuela,6.414107,-66.578926,381044514,5279243,0,375765271,0,0,False,False,VE
2022-03-06,VNM,Vietnam,15.974222,105.806431,381044514,5279243,0,375765271,0,0,False,False,VN
2022-03-06,ESH,Western Sahara,24.221916,-12.886729,381044514,5279243,0,375765271,0,0,False,False,EH
2022-03-06,WWW,Whole Globe,0,0,381044514,5279243,0,375765271,0,0,False,False,
2022-03-15,YEM,Yemen,15.555545,48.531539,409168680,5577427,,,,,False,False,YE
2022-03-15,ZMB,Zambia,-13.151917,27.852537,409168680,5577427,,,,,False,False,ZM
2022-03-15,ZWE,Zimbabwe,-19.013286,29.146667,409168680,5577427,,,,,False,False,ZW
